title,관광지구분,소재지도로명주소,소재지지번주소,위도,경도,면적,공공편익시설정보,숙박시설정보,운동및오락시설정보,휴양및문화시설정보,접객시설정보,지원시설정보,지정일자,수용인원수,주차가능수,description,관리기관전화번호,관리기관명,데이터기준일자,제공기관코드,제공기관명
어답산관광지,관광지,강원도 횡성군 갑천면 어답산로 516,강원도 횡성군 갑천면 병지방리 539-1,37.59380861,128.0575207,256567,"캠핑장, 계곡","민박,펜션",족구장,,,,1999.9.27,10000,400,"병지방계곡,캠핑장",033-340-5981,횡성군청,2021.7.22,4260000,강원도 횡성군
유현문화관광지,관광지,강원도 횡성군 서원면 경강로유현1길 30,강원도 횡성군 서원면 유현리 1097,37.52903211,127.8186829,147959,"성당, 유물전시관",,,,,,2003.4.12,5000,60,"풍수원성당, 유물전시관, 산책로",033-340-5986,횡성군청,2021.7.22,4260000,강원도 횡성군
웰리힐리파크 관광단지,관광단지,강원도 횡성군 둔내면 고원로 451,강원도 횡성군 둔내면 두원리 204,37.49012611,128.2501389,4830709,"스키장,콘도,골프장",콘도,"유원시설, 공연장",,,,2005.6.15,10000,500,"스키장, 골프장, 곤돌라, 콘도",1544-8833,신안종합리조트,2021.7.22,4260000,강원도 횡성군
소요산관광지,관광지,경기도 동두천시 평화로2910번길 145,경기도 동두천시 상봉암동 산 1-1,37.94652177,127.0693409,2472000,관리사무소+주차장+화장실,캐라반,,캠핑장+자유수호평화박물관+경기북부어린이박물관,야외음악당,,1977.3.31,100000,500,가을 단풍이 아름다워 예부터 경기의 소금강이라 일컬어졌으며 자재암 원효폭포 등의 관광명소가 소재하고 있다,031-860-2065,경기도 동두천시청 관광휴양과,2022.9.1,3920000,경기도 동두천시
탑산약수온천,관광지,경상북도 의성군 봉양면 도리원2길 88-42,경상북도 의성군 봉양면 구산리 1635,36.30396195,128.5892642,4958.6776,관리사무소 + 화장실 + 주차장,객실2,,,,,1997.12.31,1000,200,몸에 기를 넣어 건강을 증진시키는 유기 게르마늄 성분이 들어있는 세계 최고 게르마늄 함유 온천,054-830-6097,경상북도 의성군청,2022.9.21,5150000,경상북도 의성군
진하해수욕장,관광지,울산광역시 울주군 서생면 진하길 7,울산광역시 울주군 서생면 진하리 307-2,35.3855388,129.3415755,44000,샤워실+화장실,펜션+호텔,산책로+해양스포츠,카페+식당,,진하행정봉사실,2016.3.21,50000,300,"수심이 얕고,파도가 잔잔하여 가족단위 해수욕에 알맞은 울산의 대표적 해수욕장",052-204-0353,울산광역시 울주군청,2022.8.31,3730000,울산광역시 울주군
영남알프스 복합웰컴센터,관광지,울산광역시 울주군 상북면 알프스온천5길 103-8,울산광역시 울주군 상북면 등억알프스리 515-4,35.55645417,129.0679842,29866000,샤워실+화장실+주차장,모텔+리조트+펜션,영화관+클라이밍센터+번개맨체험관+VR체험존,영화관+카페,,영남알프스복합웰컴센터,2016.3.21,1000000,250,"울주 서쪽에 자리하고 있는 1,000m높이의 산들이 유럽 알프스와 견주어도 손색이 없어 많은 등산객들이 방문하고 있음",052-204-2931,울산광역시 울주군청,2022.8.31,3730000,울산광역시 울주군
외고산옹기마을,관광지,울산광역시 울주군 온양읍 외고산 3길 36,울산광역시 울주군 온양읍 고산리 501-18,35.435094,129.2795067,174580,화장실+안내소,,산책로+어린이 놀이터,옹기박물관+민속박물관+옹기아카데미관+발효아카데미관,,,2016.3.21,500000,500,"전국 최대 규모의 옹기점 집성지,옹기를 만드는 공방과 이를 구웡내는 가마를 볼수있다.",052-204-0334,울산광역시 울주군청,2022.8.31,3730000,울산광역시 울주군
울주 대곡리 반구대 암각화,관광지,울산광역시 울주군 언양읍 반구대안길 285,울산광역시 울주군 언양읍 대곡리 991,35.60863087,129.172957,117937,암각화박물관+주차장,반구대 팜스테이,산책로,반구대 팜스테이,,관광안내소,2016.3.21,50000,200,"태화강의 한 지류인 대곡천의 너비 10m,높이 3m바위에 새겨진 그림으로 신석기 시대부터 여러시대에 걸쳐 제작된 것으로 보인다.국보 285호",052-204-0323,울산광역시 울주군청,2022.8.31,3730000,울산광역시 울주군
작괘천,관광지,,울산광역시 울주군 상북면 등억알프스리 18-2,35.55162452,129.0953395,100000,샤워실+급수대+화장실,펜션+야영장,캠핑장+산책로,작천정+캠핑장,,,2016.3.21,200000,2000,"수백평이나되는 바위가 오랜 세월의 물살에 깎여 움푹움푹파인 형상이 마치 술잔을 걸어둔것과 같다고 해서작괘천이라하며, 사시사철 맑은 물이 흐른다",052-204-2343,울산광역시 울주군청,2022.8.31,3730000,울산광역시 울주군
대운산 내원암 계곡,관광지,울산광역시 울주군 온양읍 대운상대길 382,울산광역시 울주군 온양읍 운화리 1312,35.39913422,129.2309807,891008,화장실+주차장,,,산책로+사찰,,,2016.3.21,200000,500,"깊고 청량한 계곡속의 수려한 연못과폭포, 한번 누워보고 싶은 반석들을 품고 있는 비경이 있음",052-204-2343,울산광역시 울주군청,2022.8.31,3730000,울산광역시 울주군
간절곶 공원,관광지,울산광역시 울주군 서생면 간절곶해안길 205,울산광역시 울주군 서생면 대송리 2,35.3625312,129.3591079,584984,주차장+화장실,펜션,산책로+카페,카페+소망우체통,,,2016.3.21,500000,580,한반도에서 가장 해가 먼저 뜨는 대표적 해맞이 장소,052-204-1754,울산광역시 울주군청,2022.8.31,3730000,울산광역시 울주군
오전약수관광지,관광지,경상북도 봉화군 물야면 문수로 1541,경상북도 봉화군 물야면 오전리 95-35,37.01209531,128.7457209,137000,관리사무소+화장실+상하수도시설+주차장,,,,관광식당,,1986.12.30,2000,500,"심산계곡에 자리잡은 약수탕은 선달산, 옥석산 아래 깊은 계곡에 위치하고 있고, 약수는 예부터 위장병과 피부병에 효험이 있다.",054-679-6353,경상북도 봉화군청,2022.9.16,5240000,경상북도 봉화군
다덕약수관광지,관광지,경상북도 봉화군 봉성면 다덕로 873,경상북도 봉화군 봉성면 우곡리 505-5,36.9141215,128.8273232,88720,관리사무소+화장실+주차장,,,,관광식당,,2008.12.30,500,120,옛날 스무나무 아래 약수가 있어 이를 마시고 위장병과 피부병에 효험이 있어 많은 사람이 이 약수를 마시고 덕을 보았다 하여 다덕약수라고 불리움,054-679-6353,경상북도 봉화군청,2022.9.16,5240000,경상북도 봉화군
두타연,관광지,강원도 양구군 방산면 두타연로 297,강원도 양구군 방산면 고방산리 1024,38.246783,127.9816923,30,화장실+주차장,,,,,,1996.5.7,1000,50,"금강산에서 발원한 물줄기가 골짜기를 만나 아담한 폭포를 이루고, 그 아래 만들어진 너른 소를 일컫는다.",033-480-7266,강원도 양구군청,2022.8.31,4320000,강원도 양구군
한반도섬,관광지,강원도 양구군 양구읍 고대리 649-1,강원도 양구군 양구읍 고대리 649-1,38.130582,127.982972,4500,화장실+주차장,,파로호뱃길나루터: 카누+카약+수상자전거+마이보트 이용가능,,,,2009.7.9,5000,100,한반도지형을 그대로 축소한 섬,033-480-7267,강원도 양구군청,2022.8.31,4320000,강원도 양구군
국토정중앙천문대,관광지,강원도 양구군 남면 국토정중앙로 127,강원도 양구군 남면 도촌리 96-5,38.0689384,128.0296768,1166,화장실+주차장,,,휴게실+전시실+천체투영실+영상관,,,2007.5.31,50,55,우리나라의 중심에서 하늘을 바라보기 위해국토정중앙점 부근에 건설되어 2007년 5월 31일 개관,033-480-7255,강원도 양구군청,2022.8.31,4320000,강원도 양구군
을지전망대,관광지,강원도 양구군 해안면 전망대로 540,강원도 양구군 해안면 후리 621,38.32452923,128.1356817,324,화장실+주차장,,,,,,1988.12.10,200,20,"해발 1,049m DMZ 철책위에서 남북한의 대치상황을 한눈에 볼 수 있다",033-480-7251,강원도 양구군청,2022.8.31,4320000,강원도 양구군
제4땅굴,관광지,강원도 양구군 해안면 땅굴로 454,강원도 양구군 해안면 이현리 743,38.31963688,128.1107257,1652,화장실+주차장,,,안보전시관,,,1996.8.1,200,40,"1990년 2월3일 발견,  군사 분계선에서 1,028m 떨어진 곳에 위치",033-480-7251,강원도 양구군청,2022.8.31,4320000,강원도 양구군
양구 DMZ 조이나믹 체험장,관광지,강원도 양구군 해안면 해안서화로 47-6,강원도 양구군 해안면 후리 642,38.28900491,128.1464817,25463,화장실+주차장,,트램펄린+모험놀이시설+그물터널 놀이대+곡선형 집와이어+전동휠,,,,2021.9.29,200,42,"통일관, 전쟁기념관, 을지전망대, 제4땅굴을 찾는 관광객에게 볼거리를 제공함과 더불어 복합적 체험공간을추가로 조성함으로써 오감으로 느끼는 양구만의 차별화된 관광 인프라 구축으로 머물러 갈수 있는 체류형 관광지",033-480-7253,강원도 양구군청,2022.8.31,4320000,강원도 양구군
양구 통일관,관광지,강원도 양구군 해안면 해안서화로 35,강원도 양구군 해안면 후리 622,38.2900609,128.1455851,531,화장실+주차장,,,,,,1996.8.1,100,40,"통일에 대비하여 국민에게 북한 실상에 대한 이해의 폭을 넓히고, 통일교육의 장으로 활용하기 위한 공간",033-480-7251,강원도 양구군청,2022.8.31,4320000,강원도 양구군
양구수목원,관광지,강원도 양구군 동면 숨골로 310번길 131,강원도 양구군 동면 원당리 180,38.19204231,128.0762778,189141,화장실+주차장,,,휴게실+전시실+체험관,,,2004.4.19,5000,50,자연생태의 모든 것을 오감으로 느끼고 체험할 수 있는 곳,033-480-7391,강원도 양구군청,2022.8.31,4320000,강원도 양구군
전남대학교용지,관광지,,광주광역시 북구 용봉동 81-2,35.17388133,126.9111447,17951,화장실+주차장,,종합체육시설,,,,1969.1.1,1000,1000,전남대학교를 구경할 수 있음,062-530-5114,광주광역시 전남대학교,2022.1.1,6290000,광주광역시
오-월드,관광지,대전광역시 중구 사정공원로 70(사정동),대전광역시 중구 사정동 142,36.28749924,127.3985039,682830,유모차대여소+수유실+의무실+고객지원센터+물품보관소,,버드랜드+조이랜드+플라워랜드+시즌놀이시설,행복쉼터,,,2002.5.2,0,1545,주랜드 + 플라워랜드 + 조이랜드”를 복합적으로 구성하여 온가족이 함께 즐길 수 있는 테마공원 *수용인원:제한없음,042-580-4820,대전도시공사,2022.9.2,3650000,대전광역시 중구
뿌리공원,관광지,대전광역시 중구 뿌리공원로 79(침산동),대전광역시 중구 침산동 364,36.28538043,127.3883,125000,관광안내소+수유실,효문화마을관리원,국궁장,성씨조형물+캠핑장+한국족보박물관 등,,,2013.9.1,0,447,"전국유일의 효 테마공원으로서 자신의 뿌리를 되찾을 수 있는 성씨별 조형물과 수변무대, 전망대, 산림욕장 등 다양한 시설이 갖추어진 체험학습의 산 교육장  *수용인원:제한없음",042-288-8301,대전광역시 중구청,2022.9.2,3650000,대전광역시 중구
아쿠아리움,관광지,대전광역시 중구 보문산공원로 469(대사동),대전광역시 중구 대사동 198-14,36.31005741,127.4209439,18708,휠체어+유모차대여소+보관소+수유실+고객지원센터,,,아쿠아리움+체험동물원,,,2016.7.1,0,300,전쟁에 대비해 지하방공호로 활용하던 대전 도심의 천연동굴을 변화시킨 수족관으로 국내최초이자 최대인 담수어 아쿠아리움  *수용인원:제한없음,042-226-2100,㈜신라애니멀그룹,2022.9.2,3650000,대전광역시 중구
청도박물관,관광지,경상북도 청도군 이서면 이서로 567,경상북도 청도군 이서면 양원리 129-5,35.6942561,128.6865383,1941,화장실+주차장+고고역사관+민속관+전시실+어린이체험실,,,박물관,,,2013.12.14,40,40,폐교를 새단장하여 만든 청도 최초의 종합박물관,054-370-2282,경상북도 청도군청 문화관광과,2022.8.31,5190000,경상북도 청도군
한국코미디타운,관광지,경상북도 청도군 이서면 이서로 565,경상북도 청도군 이서면 양원리 91-3,35.69358927,128.6863109,9671,주차장+화장실,,,박물관,다목적홀+공연장+카페,,2017.1.11,300,27,직접 원맨쇼를 하고 몸 개그를 하는 등 코미디를 오감으로 체험함으로써 우리 민족의 정서 속에 흐르는 웃음 유전자를 발견 할 수 있는 ‘대한민국 유일의 코미디 체험관’입니다.,054-372-8700,경상북도 청도군청 문화관광과,2022.8.31,5190000,경상북도 청도군
소싸움테마파크,관광지,경상북도 청도군 화양읍 남성현로 346,경상북도 청도군 화양읍 삼신리 1059-1,35.68529236,128.7242012,7276,화장실+쉼터,,,박물관,기획전시실+회의실,,2012.4.18,300,45,"소와 소싸움의 유래에서부터 전해져온 전승과 역사를 다양한 그래픽 패널과 모형으로 소싸움에 대한 관람객의 이해를  돕기 위해 전시관, 영상관, 기획전시실 등 소와 함께하는 다양한 체험시설이 있다.",054-373-2076,경상북도 청도군청 문화관광과,2022.8.31,5190000,경상북도 청도군
청도레일바이크,관광지,경상북도 청도군 청도읍 하지길 46-51,경상북도 청도군 청도읍 유호리 701,35.58811543,128.7661723,99800,화장실,,종합유원시설,,,,2016.7.1,400,100,청도천변을 따라 폐선된 옛 첫길을 테마로 조성,054-373-2426,경상북도 청도군청 환경과,2022.8.31,5190000,경상북도 청도군
청도자전거공원,관광지,경상북도 청도군 청도읍 하지길 46-51,경상북도 청도군 청도읍 유호리 39-15,35.5881145,128.7661742,32788,화장실+공원,,종합유원시설,,,,2017.5.31,100,50,"군내 최대 규모의 자전거공원이다. 산악자전거 체험코스(MTB알파인코스)와 MTB스킬센터, MTB지원센터 등도 마련",054-373-2425,경상북도 청도군청 환경과,2022.8.31,5190000,경상북도 청도군
청도신화랑풍류마을,관광지,경상북도 청도군 운문면 신화랑길 1,경상북도 청도군 운문면 방지리 74,35.71807645,128.9223074,291067,주차장+화장실,,,산림휴양시설,대강당+세미나실+연회장+교육실,,2012.7.23,200,219,화랑의 세속오계 정신을 연출한 체험형 복합관광단지,054-370-7300,청도우리정신문화재단,2022.8.31,5190000,경상북도 청도군
새마을운동발상지기념공원,관광지,경상북도 청도군 청도읍 새마을1길 34,경상북도 청도군 청도읍 신도리 18-2,35.60012971,128.7661487,136473,기념관+공원,,,박물관,,,2019.4.14,200,100,"6070년대 생활상 전시, 체험 및 교육",054-372-5500,청도우리정신문화재단,2022.8.31,5190000,경상북도 청도군
청도소싸움경기장,관광지,경상북도 청도군 화양읍 남성현로 348,경상북도 청도군 화양읍 삼신리 693-2,35.6867346,128.7251449,2116,의무실+수유실+식당+초보고객안내실+종합안내소,,소싸움경기장,,,,2011.9.3,10000,850,전통민속문화인 청도 소싸움을 문화관광상품으로 개발,054-370-7500,청도공영사업공사,2022.8.31,5190000,경상북도 청도군
와인터널,관광지,경상북도 청도군 화양읍 송금길 100,경상북도 청도군 화양읍 송금리 산 122,35.71513567,128.7205341,8001,화장실,,,동굴자원,,,2005.5.23,500,100,용도없이 방치되어온 터널을 정비하여 감와인 숙성저장고와 와인카페로 사용,054-371-1904,청도감와인㈜,2022.8.31,5190000,경상북도 청도군
프로방스 포토랜드,관광지,경상북도 청도군 화양읍 이슬미로 272-28,경상북도 청도군 화양읍 삼신리 879,35.68397476,128.7187441,74682,없음,,종합유원시설,,,,2012.1.1,1500,300,프랑스의 정감 있는 프로방스마을을 빛 축제로 승화,054-372-5050,(주)용암온천관광호텔 프로방스점,2022.8.31,5190000,경상북도 청도군
심우장,관광지,서울특별시 성북구 성북로29길 24,서울특별시 성북구 성북동 222-1,37.5936268,126.9916662,386,화장실,,,,,,1984.7.5,100,0,만해 한용운의 일제강점기 머물던 집,02-741-4693,서울특별시 성북구청 문화체육과,2022.8.16,3070000,서울특별시 성북구
길상사,관광지,서울특별시 성북구 선잠로5길 68(성북동),서울특별시 성북구 성북동 324-1,37.59910942,126.9946522,16939,화장실,,,,,,1997.12.14,1000,50,최고급 요정에서 도심속 도량으로 환골탈퇴,02-3672-5945,길상사,2022.8.16,3070000,서울특별시 성북구
반월호수,관광지,경기도 군포시 호수로 92,경기도 군포시 둔대동 52-2,37.32458238,126.8899642,1,화장실,,,,,,2021.5.12,100,0,순환산책로가 조성되어 있고 아름다운 풍경으로 유명한 장소이다.,031-392-3000,경기도 군포시청,2022.9.30,4020000,경기도 군포시
초막골 생태공원,관광지,경기도 군포시 초막골길 216,경기도 군포시 산본동 856,37.35410097,126.9191417,1,화장실,,,,,,2021.5.12,100,0,수리산이 가진 자연적 환경과 조선시대 역사유적 등의 문화유산을 겸비한 생태문화공간이다.,031-392-3000,경기도 군포시청,2022.9.30,4020000,경기도 군포시
수리산 도립공원,관광지,경기도 군포시 속달로 347-4,경기도 군포시 속달동 306,37.34799646,126.9005248,1,화장실,,,,,,2021.5.12,100,0,군포시민에게 마음의 안식처로 사랑받고 있는 수리산은 규모가 크고 봉우리가 많아 능선이 여러 갈래로 굽이쳐 기호에 따라 다양한 산행을 할 수 있다.,031-8008-8265,수리산도립공원 탐방안내소,2022.9.30,4020000,경기도 군포시
수리산 산림욕장,관광지,경기도 군포시 수리산로 6-2,경기도 군포시 산본동 1226,37.35761527,126.9236481,1,화장실,,,,,,2021.5.12,100,0,"도심 속에서 숲을 느낄 수 있는 공간으로 산림욕장을 걷는 내내 북카페, 발지압장, 운동기구 등 체험할 수 있는 시설들이 가득하다.",031-392-3000,경기도 군포시청,2022.9.30,4020000,경기도 군포시
철쭉동산,관광지,경기도 군포시 고산로 460,경기도 군포시 산본동 1152-10,37.35560813,126.9269137,1,화장실,,,,,,2021.5.12,100,0,빈틈없이 심긴 철쭉꽃이 만개한 모습은 많은 사람들에게 사랑을 받으며 군포의 대표축제로 자리매김하였다.,031-392-3000,경기도 군포시청,2022.9.30,4020000,경기도 군포시
수리사,관광지,경기도 군포시 속달로 347-181,경기도 군포시 속달동 329,37.35443607,126.8967938,1,화장실,,,,,,2021.5.12,100,0,진흥왕 때 세워진 수리사는 6.25전쟁을 거치며 모든 건물들이 소실되었다가 꾸준히 복원되어 오늘에 이르고 있다.,031-438-1823,수리사,2022.9.30,4020000,경기도 군포시
물누리체험관,관광지,경기도 군포시 호수로 170-85,경기도 군포시 둔대동 301-5,37.32136505,126.8996775,1,화장실,,,,,,2021.5.12,100,0,물과 관련된 다양한 체험프로그램이 있는 물누리체험관,031-390-8688,경기도 군포시청,2022.9.30,4020000,경기도 군포시
누리천문대,관광지,경기도 군포시 대야2로 139,경기도 군포시 대야미동 636-7,37.33028283,126.9153444,1,화장실,,,,,,2021.5.12,100,0,"천문우주체험관. 4D입체상영관, 플라네타리움 등 유익하고 알찬 시설을 갖춘 최첨단 과학문화 공간, 대야도서관 4층에 있다.",031-504-7100,경기도 군포시청,2022.9.30,4020000,경기도 군포시
금마관광지,관광지,전라북도 익산시 금마면 고도9길 41-14,전라북도 익산시 금마면 동고도리 534-3,36.0015063,127.0570781,208700,광장+안내시설+화장실+주차장+만남의장,황토숙박,놀이시설+전통 놀이마당,공연장+조경휴게소+공원+교양관+유적전시시설+꽃동산+마재배지+실개천+잔디광장+서동선화이야기동산+주말농장+농경체험장+상가,,,1990.12.3,1000,451,익산 서동공원 일원,063-0859-5827,전라북도 익산시청,2022.9.16,4680000,전라북도 익산시
미륵사지관광지,관광지,전라북도 익산시 금마면 미륵사지로 362,전라북도 익산시 금마면 기양리 104-1,36.01154232,127.0287139,108743,주차장+광장+안내소+화장실,,,전통음식점+기념품점,,,2006.2.22,2000,150,미륵사지 절터 및 전시실,063-0859-5827,전라북도 익산시청,2022.9.16,4680000,전라북도 익산시
왕궁보석테마 관광지,관광지,전라북도 익산시 왕궁면 호반로 8,전라북도 익산시 왕궁면 동용리 541-1,35.99061279,127.1025486,160460,주차장+광장+관광안내시설,,놀이터,보석박물관+화석전시관+공룡테마공원+피크닉장+기타+전시판매센터+식당+판매시설,,,2001.7.5,3000,236,익산 보석박물관,063-0859-5827,전라북도 익산시청,2022.9.16,4680000,전라북도 익산시
웅포관광지,관광지,전라북도 익산시 웅포면 강변로 25,전라북도 익산시 웅포면 웅포리 727,36.06581391,126.8754193,2576294,주차장+화장실+샤워장+취사장및음수대,,골프장+운동장+썰매장,문화체육센터+캠핑장+청소년수련시설+야영장+자연학습장+골프연습장+상가,,,2003.2.18,500,100,웅포 곰개나루 및 캠핑장,063-0859-5827,전라북도 익산시청,2022.9.16,4680000,전라북도 익산시
불갑사관광지,관광지,전라남도 영광군 불갑면 불갑사로 450,전라남도 영광군 불갑면 모악리 408-2,35.199675,126.550047,137517,관광안내소(350-4889),영광힐링컨벤션타운,,,,,1992.2.9,10000,3400,유서깊은 불교문화의 역사와 수려한 자연경관를 간직한 불갑사 지구의 관광명소이며 관광수요에 능동적으로 대처할 수 있는 휴식공간 제공,061-350-5758,전라남도 영광군청,2022.9.17,4970000,전라남도 영광군
화암관광지,관광지,강원도 정선군 화암면 화암동굴길 12-13,강원도 정선군 화암면 화암리 540-12,37.35092374,128.7896216,213235,도로주차장관리사무소+화장실 등,,다목적광장 등,향토박물관+금광촌 등,,,1977.3.17,100000,500,천혜의 경관과 자연적 역사문화적 특성을 관광자원화하였음,033-560-2145,강원도 정선군청,2022.9.26,4290000,강원도 정선군
아우라지 관광지,관광지,강원도 정선군 여량면 아우라지길 69,강원도 정선군 여량면 여량리 186-1,37.47574407,128.7243663,122244,도로주차장관리사무소+화장실 등,,다목적운동장 등,아리랑전수관+달오름공원 등,,,2002.9.13,100000,100,천혜의 경관과 자연적 역사문화적 특성을 관광자원화하였음,033-560-2145,강원도 정선군청,2022.9.26,4290000,강원도 정선군
광명동굴,관광지,경기도 광명시 가학로 85번길 142,경기도 광명시 가학동 27,37.42467857,126.8634321,782,주차장+화장실+매표소+방문자센터,,VR체험관+공포체험관,라스코전시관+타임캡슐관+예술의전당+미디어타워,푸드코트+노천카페+이동판매대+동굴카페+와인판매대+기념품샵,,2011.9.11,4000,899,1912년 일제가 자원수탈을 목적으로 개발을 시작한 광명동굴(구.시흥광산)은 일제강점기 징용과 수탈의 현장이자 해방 후 근대화ㆍ산업화의 흔적을 고스란히 간직한 산업유산이다. 1972년 폐광된 후 40여 년간 새우젓 창고로 쓰이며 잠들어 있던 광명동굴을 2011년 광명시가 매입하여 역사ㆍ문화 관광명소로 탈바꿈시켰다. 광명동굴은 산업유산으로서의 가치와 문화적 가치가 결합된 대한민국 최고의 동굴테마파크라는 평가를 받고 있으며 연간 100만 명 이상의 관광객이 찾는 세계가 놀란 폐광의 기적을 이루었다.,070-4277-8902,경기도 광명도시공사,2022.10.7,3900000,경기도 광명시
예천포리관광지,관광지,경상북도 예천군 감천면 복골길 150,경상북도 예천군 감천면 포리 688,36.70015808,128.514204,210241,주차장+화장실+휴게공간,,다목적운동장+체력단련장+전통놀이광장,박물관,,,2004.11.8,600,150,"내성천 지류가 자연석과 어울려 경관이 수려하며, 충효테마공원에서 충효 체험이 가능함.",054-650-6394,경상북도 예천군청,2022.9.17,5230000,경상북도 예천군
예천삼강,관광지,경상북도 예천군 풍양면 삼강리길 53-23,경상북도 예천군 풍양면 삼강리 58-1,36.56378393,128.304509,210389,도로+마당+종합안내센터+주차장+공급처리시설+화장실,전통가옥체험장+강문화체험 휴·유·락마을,,강문화전시관,,,2014.4.28,300,100,"자연과 문호, 사람과 역사가 함께 공존하는 예천의 신개념 문화체험공간",054-650-6035,경상북도 예천군청,2022.9.17,5230000,경상북도 예천군
장사해수욕장관광지,관광지,경상북도 영덕군 남정면 동해대로 3592,경상북도 영덕군 남정면 장사리 74-1,36.2824187,129.3755938,104219,관리사무소+주차장+화장실(3동)+샤워장(2동)+광장,방갈로(20동),미니축구장,전승기념마당,상가(2동),,1981.12.31,2500,297,해수욕장의 청정 자연자원과 장사상륙작전이라는 역사적 사건을 보존한 관광지,054-730-6513,경상북도 영덕군청,2022.8.24,5180000,경상북도 영덕군
한국가구박물관,관광지,서울특별시 성북구 대사관로121,서울특별시 성북구 성북동 330-577,37.60037831,126.9934492,5555,화장실+라운지,,,,,,2013.1.1,20,35,한국의 전통가구를 한눈에 볼수있는 곳,02-745-0181,한국가구박물관,2022.8.16,3070000,서울특별시 성북구
녹진관광지,관광지,,전라남도 진도군 군내면 녹진리 산2-14,34.568986,126.300201,227299,화장실(3동)+주차장(5개소)+관광안내소(1동),,,진도타워+해양에너지공원+판옥선+진도휴게소,,,1988.12.16,10000,310,명량해전의 울둘목 해역이 한눈에 보이는 역사가 숨쉬는 관광지,061-540-3442,전라남도 진도군청,2022.8.17,5000000,전라남도 진도군
회동관광지,관광지,전라남도 진도군 고군면 신비의바닷길 148,전라남도 진도군 고군면 금계리 153-1,34.42726548,126.3513474,2962920,화장실(4동)+주차장(4개소)+관광안내소(1동),,게이트볼장+야구장,신비의바닷길체험관+가계해수욕장+회동전망대+해양생태관,회동+가계공연장,청소년수련원,1987.10.15,10000,350,신비의바닷길이 열리는 축제명소,061-540-3442,전라남도 진도군청,2022.8.17,5000000,전라남도 진도군
아리랑마을관광지,관광지,전라남도 진도군 임회면 아리랑길 95-5,전라남도 진도군 임회면 상만리 11,34.38201529,126.2310334,298930,화장실(2동)+주차장(3개소),,,아리랑체험관+홍주촌+예술인촌전시관,,,2005.9.1,3000,150,예술인의 멋과 정취를 느낄수 있는 아리랑마을,061-540-3442,전라남도 진도군청,2022.8.17,5000000,전라남도 진도군
마니산 국민관광지,관광지,인천광역시 강화군 화도면 마니산로675번길 18,인천광역시 강화군 화도면 상방리 402-2,37.63245827,126.4237957,486000,관리사무소(2동)+분리수거장(2동)+창고(2동)+석교(7동)+목교(3동)+담수보(6동)+배수지(2동)+화장실(12동)+주차장(11개소)+매표소+정수장+물탱크(5동)+정화시설+샤워실,,,야외공연장+단군놀이터+야외취사장(7동)+전망대,,,1977.3.21,147272,1293,백두산과 한라산의 중간지점에 위치하여 우리나라에서 기가 가장 센 곳이며 정상에 있는 참성단에서 매해 제례를 올리고 칠선녀가 전국 체육대회의 성화를 채화함,032-930-7068,인천광역시 강화군 시설관리공단,2022.8.11,3570000,인천광역시 강화군
추사박물관,관광지,경기도 과천시 추사로 78,경기도 과천시 주암동 184-2,37.45300477,127.0287157,3020,도로+주차장+화장실,,,https://www.gccity.go.kr/chusamuseum/main.do,,,2013.6.3,300,33,추사 김정희가 말년에 4년간 과지초당에서 지내며 꽃피웠던 학문과 예술의 정수를 알리기 위해 추사박물관 개관함.,02-2150-3650,경기도 과천시청,2022.8.5,3970000,경기도 과천시
남당,관광지,,충청남도 홍성군 서부면 남당리 859-2,36.53923432,126.4719154,166200,관광안내소+화장실+주차장,,홍성승마체험장,상황리오토캠핑장,,,2007.9.20,10000,408,"대하, 우럭, 새조개, 꽃게 등 사시사철 싱싱한 수산물을 맛볼수 있으며, 잔잔한 은빛 수면으로 석양이 아름다움을 느낄 수 있음",041-630-1300,충청남도 홍성군청,2022.7.28,4600000,충청남도 홍성군
구드래관광지,관광지,충청남도 부여군 부여읍 백강로 148,충청남도 부여군 부여읍 구교리 17-4,36.28718846,126.9068136,148515,광장+선착장+조각공원,,,,,,1969.1.21,45000,300,백마강과 함께 가족단위 공원 심터 및 생활체육을 즐길수 있는 웰빙관광지,041-830-2222,충청남도 부여군청,2022.7.19,4570000,충청남도 부여군
서동요역사관광지,관광지,충청남도 부여군 충화면 충신로 618,충청남도 부여군 충화면 가화리 313,36.14594895,126.8248464,174508,관리사무소+주차장+화장실,수련시설,짚라이더+둘레길,부여군청소년수련원,,,2008.11.20,400,150,역사문화환경을 구축하여 부여 대표 관광명소,041-830-2222,충청남도 부여군청,2022.7.19,4570000,충청남도 부여군
백제문화관광단지,관광단지,충청남도 부여군 규암면 백제문로 400,충청남도 부여군 규암면 합정리 578,36.30386704,126.9007732,3026277,주차장+화장실,휴양콘도미니엄,골프장,백제역사문화관+백제문화단지+롯데아울렛,,,2015.1.12,100000,3000,"고유의 교육적 가치 제고 및 관광, 지역경제 활성화를 위한 슈요자 중심의 체류형 종합 관광단지",041-830-2222,충청남도 부여군청,2022.7.19,4570000,충청남도 부여군
보문관광단지,관광단지,경상북도 경주시 보문로 446,경상북도 경주시 신평동 375-7,35.843673,129.2869659,8515243,도로+동사무소+파출소+소방서+우체국+물레방아광장 등,특급호텔(5개소)+소형호텔(3개소)+콘도미니엄(5개소)+여관(8개소) 등,"회원제 골프장(36홀, 1개소)+퍼브릭골프장(18홀, 1개소)+유희 시설(경주월드) 등",컨벤션 센터+연수 및 수련시설+청소년수련시설+신라밀레니엄+종합스포츠시설+소공원 등,휴게식당+한식요식점+상가 등,,1975.4.4,20000,540,"사계절 관광객이 이용할 수 있는 온천형 관광지, 우아하고 정취있는 전통적 이미지가 창출될 수 있는 내륙형 관광 휴양지",054-779-6082,경상북도 경주시청,2022.7.15,5050000,경상북도 경주시
오색관광지,관광지,,강원도 양양군 서면 가라피리 165,38.07706115,128.5128997,461000,관리사무소+주차장+하수도시설+도로+취사장+공중화장실,가족호텔+콘도미니엄+모텔+산장+방가로+팬션,수영장+클럽하우스+골프연습장,야영장+조경휴게소,,,1994.10.26,3000,1000,설악산과오색령에 아름다운 자연경관을 볼수 있음,033-670-2724,강원도 양양군청,2022.7.14,4350000,강원도 양양군
지경관광지,관광지,,강원도 양양군 현남면 지리 5-1,37.92741327,128.7948611,157699,주차장,호텔+생활형숙박시설,농촌체험장,수동골센타+캠핑장및 카라반,,,2016.9.23,3000,1500,동해안 해안절경 감상,033-670-2724,강원도 양양군청,2022.7.14,4350000,강원도 양양군
설해원(양양국제공항),관광단지,,강원도 양양군 손양면 동호리 510-28,38.05555608,128.6641979,2730584,주차장+경비실+직원숙소,관광호텔+휴양콘도미니엄+생활형숙박시설,골프장+체육관,박물관+힐링가든+미술관,,,2019.12.23,5000,2500,장기체류형 종합 스포츠레저단지,033-670-2724,강원도 양양군청,2022.7.14,4350000,강원도 양양군
만리포 관광지,관광지,충청남도 태안군 소원면 만리포2길 190-3,,36.79000781,126.1465709,321561.8,106173.5,68560.4,31730.8,39758.4,,,2010.5.6,30000,1760,관광진흥과,041-670-2770,충청남도 태안군,2022.7.13,4620000,충청남도 태안군
레인보우힐링관광지,관광지,,충청북도 영동군 영동읍 매천리 산 35-1,36.15635341,127.7865137,1790835,영동와인터널+와인연구소+과일나라테마공원+웰니스단지+문화예술회관+광장+콘도+연수원+상가시설 등,산림휴양림+휴양콘도미니엄,골프연습장,영동와인터널+와인연구소+과일나라테마공원+웰니스단지+문화예술회관+광장 등,산림휴양림+휴양콘도미니엄,주차장+광장,2009.5.22,45000,450,영동의 아름다움을 볼 수 있는 7가지 테마가 있는 관광지,043-740-3523,충청북도 영동군청,2022.7.13,4440000,충청북도 영동군
송호관광지,관광지,충청북도 영동군 양산면 송호로 105,충청북도 영동군 양산면 송호리 249-8,36.12969079,127.676367,284000,관리사무소+주차장+화장실+음수대,야영장,축구장+다목적구장,와인체험관+와인테마공원,,,1977.10.31,1000,310,아름다운 금강변 옆 1400여 그루의 송림에서 캠핑을 즐기며+ 신선놀음을 하기 제격인 곳,043-740-3228,충청북도 영동군청,2022.7.13,4440000,충청북도 영동군
순천만국가정원,관광지,전라남도 순천시 국가정원1호길 47,전라남도 순천시 오천동 600,34.92888588,127.4999591,926992,ATM+ 의료센터+ 체험학습센터+ 공중전화+ 물품대여소+ 물품보관소+ 분실물보관소+ 종합안내소+ 매표소+ 수유실+ 어린이보호소+ 노약자/장애인 보호소+ 대형버스기사쉼터,해당없음,관람차+스카이큐브+야생동물원+세계의상체험장+수상자전거체험+이미지유화체험,갯벌공연장+갯지렁이갤러리+갯지렁이도서관+한방체험센터,매점+식당+카페+기념품점,소회의실+컨퍼런스홀+입체영상관+,2015.9.5,130000,3530,대한민국 생태도시 순천은 세계 5대 연안습지인 순천만습지의항구적인 보전을 위해 정원을 조성하고 2013순천만국제정원박람회를 개최하였다. 그 이후 제1호 국가정원으로 지정됨으로써 순천만국가정원은 대한민국 정원문화산업의 메카로 자리매김하게 되었다.,061-749-2749,전라남도 순천시청 국가정원운영과,2022.7.12,4820000,전라남도 순천시
순천만습지,관광지,전라남도 순천시 순천만길 513-25(대대동),전라남도 순천시 대대동 162-2,34.88579701,127.5092833,3015859,순천만쉼터+ 공예·특산품관+ 안내소+유모차대여+양산대여,,용산전망대+순천만갈대밭,순천문학관+체험선+순천만역사관+자연생태관,,,2008.6.16,1000,600,"75㎢가 넘는 해수역, 22.6㎢의 갯벌면적, 5.4㎢에 달하는 거대한 갈대군락과 겨울이면 흑두루미, 재두루미, 노랑부리저어새, 큰고니, 검은머리물떼새 등 순천만에서 발견되는 철새는 총 230여종으로 우리나라 전체 조류의 절반가량이나 되며 2003년 습지 보호지역, 2006년 람사르협약 등록, 2008년 국가지정문화재 명승 제41호로 지정된 순천만은 농게, 칠게, 짱뚱어 등과 같은 갯벌 생물들이 한데 어우러져 살아가고 있음.",061-749-6052,전라남도 순천시청 순천만보전과,2022.7.12,4820000,전라남도 순천시
낙안읍성,관광지,전라남도 순천시 낙안면 충민길 30(동내리),전라남도 순천시 낙안면 동내리 438-1,34.90640107,127.3418227,223108,주차장+ 화장실+ 음수대+ 매표소+ 관광안내소+ 전시가옥+ 체험장+ 자료관+ 교통통제소,개인 민박(36개소),,,식당(난전1~4호점)+ 매점,,1983.6.14,30000,565,"조선시대 상징적 계획도시인 읍성으로 주민이 실재 거주하는 대한민국 대표 민속마을-사적 제302호(1983.6.14.), 세계문화유산 잠정목록에 등재(2011.3.29.)",061-749-8840,전라남도 순천시청 낙안읍성지원사업소,2022.7.12,4820000,전라남도 순천시
드라마촬영장,관광지,전라남도 순천시 비례골길 24(조례동),전라남도 순천시 조례동 22,34.95810919,127.5378026,40463,화장실+수유실,해당없음,추억음악실+청춘사진관+뽑기방+오락실,순양극장+언약의집,매점+장터,해당없음,2006.11.2,10000,170,2006년 개장한 순천드라마촬영장은 1960~80년대 시대별 3개 마을(185여채)이 조성되어 있으며 7080 복고 체험 프로그램을 구성하여 관광객이 지속적으로 증가하고 있는 추세임,061-749-4540,전라남도 순천시청 관광과,2022.7.12,4820000,전라남도 순천시
뿌리깊은나무박물관,관광지,전라남도 순천시 낙안면 평촌3길 45,전라남도 순천시 낙안면 남내리 219,34.9036464,127.3399827,1736,박물관 쉼터+ 물품보관소+ 매표소+ 안내데스크,해당없음,해당없음,해당없음,해당없음,해당없음,2011.11.21,300,40,"2011년에 개관한 뿌리깊은나무박물관은 잡지뿌리깊은나무 창간자 故한창기 선생이 생전에 모은 6,500여점의 유물이 전시·보존 되어 있는곳입니다.",061-749-8858,전라남도 순천시청 문화유산과,2022.7.12,4820000,전라남도 순천시
송광사,관광지,전라남도 순천시 송광면 송광사안길 100,전라남도 순천시 송광면 신평리 12,35.00236255,127.2748706,44297,쉼터,,,,,,2009.12.21,200,300,유구한 역사를 품은 힐링 사찰,061-755-0107,전라남도 순천시청 송광면,2022.7.12,4820000,전라남도 순천시
선암사,관광지,전라남도 순천시 승주읍 선암사길 450,전라남도 순천시 승주읍 죽학리 802,34.99618213,127.327356,10000,화장실+ 매표소+ 주차장+ 종무소(안내소)+ 기념품판매소(선각당+ 금강서적),심검당+ 창파당+ 설선당+ 해천당,해당없음,불교대학+ 템플스테이,공양간+ 선각당(찻집),없음,1760-01-01,2000,330,선암사는 호남의 명산 조계산(884M)에 자리잡은 한국적인 절의 옛 모습을  가장 잘 보존한 천년의 고찰로 2018년 유네스코 세계문화유산에 등재된 국내의 명찰 가운데 하나,061-754-5247,전라남도 순천시청 승주읍,2022.7.12,4820000,전라남도 순천시
에코촌유스호스텔,관광지,전라남도 순천시 해룡면 생태배움길 123,전라남도 순천시 해룡면 대안리 1055-9,34.92310938,127.5164423,1866,화장실,숙박시설 20개,씨름장,,,에코관+ 생태관+ 식당+ 자가취사장,2013.4.17,150,45,"세계5대 연안습지 순천만, 2013년 440만이 감동한 순천마 정원의 인근에 자리잡은 전국 최초 전통 한옥형 유스호스텔.",061-749-4816,전라남도 순천시청 관광과,2022.7.12,4820000,전라남도 순천시
순천자연휴양림,관광지,전라남도 순천시 서면 청소년수련원길 170,전라남도 순천시 서면 운평리 산160,35.04388083,127.4744949,900000,화장실+ 취사장+ 샤워장,객실 29실+ 캐빈하우스 6동+ 야영장 19면,,숲속치유의집+ 유아숲체험원,,관리사무소,2011.4.9,257,80,2011년 개장한 순천자연휴양림은 피톤치드가 풍부한 침엽수림으로 산책로가 길지않고 대부분이 평지여서 남녀노소 누구나 힐링할수 있는곳임,061-749-8948,전라남도 순천시청 산림과,2022.7.12,4820000,전라남도 순천시
기독교역사박물관,관광지,전라남도 순천시 매산길 61(매곡동),전라남도 순천시 매곡동 179-10,34.96043473,127.4801207,1447,작은 도서관+ 안내데스크,해당없음,해당없음,해당없음,해당없음,해당없음,2012.11.20,100,4,호남기독교 100년의 역사를 품은 순천시 기독교역사박물관은 한국 기독교 선교의 역사를 다양한 유물과 영상을 통해 알기 쉽게 전달하는 공립박물관입니다.,061-749-8858,전라남도 순천시청 문화유산과,2022.7.12,4820000,전라남도 순천시
승주골프장,관광지,전라남도 순천시 별량면 오실길 333,전라남도 순천시 별량면 덕정리 산90-1,34.89477542,127.4482083,630000,주차장,,,,,,2017.5.1,500,400,"63만평의 순천만과 다도해가 내려다 보이는 광활한 대지 위에 자연 그대로 어우러져 동, 남, 중 3개 코스로 펼쳐진 전장 9,682m의 27홀 회원제 골프장입니다.",061-740-8181,전라남도 순천시청 승주읍,2022.7.12,4820000,전라남도 순천시
파인힐스골프장,관광지,전라남도 순천시 주암면 송광사길 99,전라남도 순천시 주암면 문길리 산20-2,35.03454985,127.2723022,1023000,클럽하우스+ 락카룸+ 사우나,골프텔(36객실),27홀,,레스토랑+ 그늘집+ 프로샵,,2004.11.24,480,300,산림의 짙은 솔 내음의 대자연의 청취속에서 어우러진 다이나믹하고 드라마틱한 27홀코스,061-750-9000,전라남도 순천시청 주암면,2022.7.12,4820000,전라남도 순천시
레이크힐스골프장,관광지,전라남도 순천시 주암면 행정1길 77,전라남도 순천시 주암면 행정리 1,35.0453779,127.3092617,1120000,클럽하우스+ 락카룸+ 사우나,골프텔,36홀,,레스토랑+ 프로샵,,2008.3.13,656,400,남도의 따뜻한 기후 아래 사계절 내내 푸른 양잔디에서 라운딩이 가능한 꿈의 필드,061-729-8888,전라남도 순천시청 주암면,2022.7.12,4820000,전라남도 순천시
다리안관광지,관광지,충청북도 단양군 단양읍 소백산등산길 12,충청북도 단양군 단양읍 천동리 409,36.9647819,128.4207808,153835,화장실+주차장,돔하우스+통나무집+캠핑장,원두막+야영장+돔하우스+캠핑장,,,,1984.11.28,2000,155,다리안관광지,043-423-1243,단양관광공사,2022.6.15,4480000,충청북도 단양군
순천컨트리클럽,관광지,전라남도 순천시 별량면 동화사길 85,전라남도 순천시 별량면 죽산리 447,34.86653556,127.4059214,1620000,골프장,,,,매점+식당,,2007.3.12,160,150,"골프를 즐기면서 순천만과 여수, 고흥 앞바다를 한눈에 내려다볼 수 있는 자연 경관이 아름다운 남도 최고의 힐링골프장이다.",061-720-0000,전라남도 순천시청 별량면,2022.7.12,4820000,전라남도 순천시
부영컨트리클럽,관광지,전라남도 순천시 해룡면 신대로 188,전라남도 순천시 해룡면 신대리 1043,34.94005246,127.5555065,842238,ATM,호텔,골프연습장,,호텔 76객실,,2012.10.3,160,150,자연 친화형 설계로 도심과 가까운 곳에 위치하여 언제든지 부담없이 즐길수 있는 18홀 코스 컨트리클럽,061-816-5500,전라남도 순천시청 해룡면,2022.7.12,4820000,전라남도 순천시
그림책도서관,관광지,전라남도 순천시 도서관길 33(동외동),전라남도 순천시 동외동 176,34.9579091,127.4860252,2205,화장실+ 수유실,,,인형극장,카페테리아,,2017.1.1,200,20,그림책원화전시 및 인형극등 체험,061-749-8892,전라남도 순천시청 도서관운영과,2022.7.12,4820000,전라남도 순천시
순천시청소년수련원,관광지,전라남도 순천시 서면 청소년수련원길 167,전라남도 순천시 서면 운평리 774-1,35.04652524,127.4733227,559000,화장실,,,,,,1993.10.22,7500,100,물과 숲 그리고 자연과 사람이 어우러지는 청소년 수련원,061-755-6296,전라남도 순천시청 평생학습과,2022.7.12,4820000,전라남도 순천시
순천용오름마을,관광지,전라남도 순천시 주암면 운룡2길 17,전라남도 순천시 주암면 운룡리 798-1,35.0921171,127.2020571,98300,화장실+ 테마체험관+,숙박시설 5개,,용오름계곡,매점+ 용오름장터,,2011.3.1,100,50,"한봉채취, 천연 밀랍초 만들기, 한봉 분양받기, 꿀벌 관찰 등 다양하고 흥미로운 체험을 할 수 있는 농촌전통테마마을",061-754-2416,전라남도 순천시청 주암면,2022.7.12,4820000,전라남도 순천시
순천향매실마을,관광지,전라남도 순천시 월등면 계월길 138,전라남도 순천시 월등면 계월리 493,35.0622232,127.4045173,925619,체험관 1+ 숙박동 1+ 휴게시설 1+ 화장실 1,숙박시설 1동,해당없음,해당없음,휴게시설,해당없음,2008.2.28,140,42,"50여년전 마을에 매화를 심은것을 시작으로 그 규모가 마을 단위로는 전국 최대 규모이며, 매년 4월이면 마을에는 매화꽃이 피기 시작하여 매화향기와 눈가루를 뿌려놓은듯한 풍경이 아름다운 마을입니다. 군장마을로 넘어가는 고개길에는 장군이 용마를 타고 하늘로 도약하면서 남겼다는 용발태족(용발자국)이 선명하게 남아있으며, 중촌마을에는 당산나무인 수령 500년생 느티나무 두 그루가 마을 입구에 서있어 마을의 오랜역사를 말해준다. 이문마을에는 이택종 선생이 일본에서 가져와 최초로 심은 매화나무로, 향매실마을에서 가장 오래된 매화나무가 자라고 있다.",061-754-2337,전라남도 순천시청 월등면,2022.7.12,4820000,전라남도 순천시
순천생태마을,관광지,전라남도 순천시 승주읍 고산도목길 9,전라남도 순천시 승주읍 도정리 1642-1,35.06648711,127.3602718,200,화장실+ 안내소+ 생태체험관+ 주차장,생태체험관,없음,생태체험관,없음,없음,2006.4.9,600,6,산간마을의 오염되지 않은 환경 속에 도심에서는 볼 수 없는 생명들이 함께하는 곳으로 계곡과 습지가 잘 보존되어 있어 생태교육장으로 안성맞춤,061-755-0141,전라남도 순천시청 승주읍,2022.7.12,4820000,전라남도 순천시
거차뻘배체험마을,관광지,전라남도 순천시 별량면 거차길 130,전라남도 순천시 별량면 마산리 566-1,34.8375993,127.4474457,495868,화장실+ 샤워장+ 뻘배체험장,민박3개,,캠핑장,,매점,2013.4.20,300,50,"거차뻘배 체험장은 2헥타르(ha)의 넓은 공유수면에서 뻘배타기,  꼬막캐기, 칠게잡기, 짱뚱어잡기, 갯벌미끄럼틀타기 등 다양한 갯벌생태체험을 할 수 있는 곳이다.",061-742-8837,전라남도 순천시청 별량면,2022.7.12,4820000,전라남도 순천시
낙안민속자연휴양림,관광지,전라남도 순천시 낙안면 민속마을길 1600,전라남도 순천시 낙안면 동내리 산3-1,34.91226789,127.3523884,2860000,화장실+ 취사장+ 샤워장+ 민속놀이체험장+ 숲체험교실,객실 15개+ 야영장 17개,,,,,2004.2.9,300,50,"낙안읍성과 주변 경관이 수려해 휴식 공간으로는 최적지일 뿐만 아니라 인근에 송광사, 선암사 같은 전통 고찰과 서산의 저녁 노을을 함께 즐길 수 있는 주암호, 상사호가 있으며, 순천만의 갈대와 해변, 순천만 국가정원, 드라마세트장, 고인돌 공원 그리고 낙안읍성 민속마을의 각종 문화 축제를 즐길 수 있는 관광 명소들이 많아 사계절 이용이 가능",061-754-4400,전라남도 순천시청 낙안면,2022.7.12,4820000,전라남도 순천시
은파관광지,관광지,전라북도 군산시 은파순환길9 (나운동),전라북도 군산시 나운동 1223-5,35.95536227,126.6890748,1764095,관리사무소+화장실+주차장+잔디관장,관광호텔,다목적운동장+체력단련장,숲체험장+휴게쉼터+전망휴게쉼터+생태습지+억새원+편백나무쉼터+숲속산책쉼터,야외공연장,없음,2020.7.10,40000,982,봄철이 되면 화사한 벚꽃길로 유명하여 시민들의 사랑을 받고 있다.,063-454-3362,전라북도 군산시청,2022.7.11,4670000,전라북도 군산시
금강호관광지,관광지,전라북도 군산시 성산면 철새로 120,전라북도 군산시 성산면 성덕리 411-1,36.01987856,126.7653058,648380,주차장+광장+화장실+관리사무소,관광호텔,유희시설+테니스장,어린이공원+체험학습장+철새조망대,야외무대,없음,2020.7.10,9969,1055,국내 최대 철새도래지로서 자연과 문화가 어우러지는 사계절 관광지로 거듭나고 있음,063-454-3344,전라북도 군산시청,2022.7.11,4670000,전라북도 군산시
삼척해수욕장,관광지,강원도 삼척시 수로부인길 453,,37.47034344,129.1647024,237503,관리사무소+주차장+광장+화장실(2동)+샤워장,모텔+콘도미니엄 및 호텔,,,,,1984.7.6,5000,1400,길이 1㎞+폭 85m의 넓은 백사장+ 맑고 깨끗한 동해해수욕장+ 푸른 송림+소규모의 항포구+ 해안의 기암괴석과 모래+ 산이 분포되어 있으며+ 남쪽으로 해안선을 끼고 해안도로가 4.2KM 개설되어 관광객들로부터 많은 호응을 얻고 있음,033-570-3547,강원도 삼척시청,2022.6.23,4240000,강원도 삼척시
맹방관광지,관광지,강원도 삼척시 근덕면 상맹방길 30-80,,37.39591618,129.2207941,779988,관리사무소+주차장+화장실(1동),휴양콘도미니엄+ 돔하우스+ 카라반,골프장,야영장,,,1980.5.29,1500,500,해수욕장을 중심으로 한 해변관광지로 동해의 맑은 물과 명사십리라 일컬어진 긴 백사장과 인접 농경지 사이에 평행하게 형성된 곰솔 등의 자연적 환경 요소를 갖춤,033-570-3547,강원도 삼척시청,2022.6.23,4240000,강원도 삼척시
장호관광지,관광지,강원도 삼척시 근덕면 삼척로 2154,,37.2868038,129.3079336,175400,관리사무소+주차장,호텔,케이블카,야영장,,,1979.6.20,2200,800,운동오락시설+오토캠핑장+카라반+야영시설 등 관광객 편의시설이 조성되어 운영되고 있으며+해상로프웨이 및 조경휴게지 등의 자연경관 감상을 위한 시설이 조성되어 운영되어 해마다 많은 관광객들이 방문,033-570-3547,강원도 삼척시청,2022.6.23,4240000,강원도 삼척시
초당관광지,관광지,강원도 삼척시 근덕면 미근로 1629,,37.37650408,129.2047561,2157243,광장+주차장,게스트하우스+ 클럽하우스,골프장,,,,1990.4.19,500,140,자연환경과 더불어 수려한 자연 지형을 그대로 살린 친환경 골프장은 기후 영향을 비교적 덜 받아 사계절 체류형 관광지의 면모를 지니고 있음,033-570-3547,강원도 삼척시청,2022.6.23,4240000,강원도 삼척시
한탄강관광지,관광지,경기도연천군전곡읍선사로76,경기도 연천군 전곡읍 전곡리 696-3,38.00887699,127.0588604,312000,관리사무소+화장실+주차장,캐라반59개+캐빈하우스16개+강변야영장86면+언덕야영장19면,인조잔디구장+풋살구장+농구장+인라인스케이트장+산책로+캐릭터공원+각종체육시설,오토캠핑장,,,1977.3.31,7800,392,한탄강이 내려다보이는 천혜의 위치에 자리잡은 관광지,031-839-2061,경기도연천군청,2022.7.7,4140000,경기도 연천군
연천재인폭포,관광지,,경기도 연천군 연천읍 부곡리 193,38.07672631,127.142345,27569,해설안내소+화장실+주차장,,,출렁다리,,,2013.2.12,500,50,18.5m 높이의 폭포로 연천군 대표적인 명승지,031-839-2277,경기도연천군청,2022.7.7,4140000,경기도 연천군
연천호로고루,관광지,,경기도 연천군 장남면 원당리 1258,37.98583872,126.8596065,21768,해설안내소+화장실+주차장,,,하늘계단,,,2006.1.2,500,20,임진강이 지류와 만나 형성된 삼각형의 대지위에 조성된 독특한 고구려성,031-839-2144,경기도연천군청,2022.7.7,4140000,경기도 연천군
당포성,관광지,,경기도 연천군 미산면 동이리 778,38.02350322,126.9854182,35174,화장실+주차장,,,,,,2006.1.2,200,20,삼국시대 성곽 천연 절벽을 이용하여 축조한 평지성,031-839-2144,경기도연천군청,2022.7.7,4140000,경기도 연천군
연천전곡리유적,관광지,경기도연천군전곡읍양연로1510,경기도 연천군 전곡읍 전곡리 515,38.01564838,127.0614526,778296,해설안내소+화장실+주차장,,,체험마을,,,1979.10.2,500,50,한탄강변에 있는 구석기시대으로 1978년 아슐리안형 주먹도끼가 발견된 이래 전 세계적으로 주목을 받고 있는 유적으로 사적 제268호,031-839-2565,경기도연천군청,2022.7.7,4140000,경기도 연천군
대한민국술테마박물관,관광지,전라북도 완주군 구이면 덕천전원길 232-58,,35.726048,127.1361627,61594,관리사무소+화장실(5동)+주차장,,,관리사무소+화장실(5동)+주차장,관리사무소+화장실(5동)+주차장,,2021.6.16,150,40,5만여 점의 유물을 통해 태곳적부터 현대까지 우리 술에 담긴 다양한 이야기를 오롯이 담고 있는 테마박물관,063-290-3854,전라북도 완주군청,2022.7.5,4720000,전라북도 완주군
담양호국민관광지,관광지,,전라남도 담양군 용면 월계리 149-67,35.4019831,126.9990829,47920000,관리사무소+공중화장실+전망대+정수장+주차장+도로,국민숙사(해피랜드호텔)+펜션(오쑈),운동시설지구,조경 및 휴게시설+용마루길+추월산 등산로,목포맛집+수정횟집+초원의집,가마골생태공원+JK통나무펜션단지(비호재지구),1988.11.29,10000,500,"담양호 국민관광지는 영산강 시원지인 가마골생태공원(용소)과 청정하고 맑은 담양호, 산세가 좋은 추월산, 역사의 흔적이 깊이 남아있는 금성산성에 이르기까지 힐링과 역사의 숨결이 살아있는 천혜의 관광지임",061-380-2793,전라남도 담양군 녹색관광과(가마골생태공원담당),2022.6.30,4850000,전라남도 담양군
죽녹원,관광지,전라남도 담양군 담양읍 죽녹원로 119,전라남도 담양군 담양읍 향교리 산37-6,35.32535666,126.9866155,310238,관리사무소+공중화장실+전망대+정자,한옥체험장(12객실),어린이놀이터,조경 및 휴게시설+생태전시관(이이남아트센터),향교죽녹원+죽녹원식당,,2000.1.2,3800,70,"2003년 5월에 조성하여 약 31만㎡의 울창한 대나무숲이 펼쳐져 있음. 죽림욕을 즐길수 있는 2.4km의 산책로가 있으며, 가사문학의 산실 담양의 정자문화를 대표하는 6정자를 재현하하고, 밤에는 별을 보며 한옥을 체험할 수 있는 공간이 조성되어있음",061-380-2782,전라남도 담양군 대나무자원연구소(대숲정원담당),2022.6.30,4850000,전라남도 담양군
메타세쿼이아랜드,관광지,,전라남도 담양군 담양읍 학동리 578-4,35.32342607,127.001993,117998,메타세쿼이아길 L=2.1km+어린이프로방스+영화세트장+개구리생태공원+에코허브센터+호남기후변화체험관+매표소 3개소+검표소 6개소+쉼터 2개소+화장실 4개소,메종드프로방스+담양프로방스펜션,어린이프로방스+카페테리아+곤충박물관,조경 및 휴게시설,명가정+담양갈비창고,,2010.1.13,1400,2000,"아름다운 숲 전국대회 부문 대상등 3회 수상에 빛나는 메타세쿼이아 길은 현재 메타세쿼이아 랜드로 조례개정하여 메타세쿼이아 길 외 어린이프로방스, 호남기후변화체험관, 개구리생태공원, 에코허브센터, 곤충박물관, 카페테리아 등 유원시설을 운영 및 공사 중이다. 메타세쿼이아 길을 사색하며 걷는것 외에도 체험 및 어린이를 위한 시설확충으로 담양을 대표하는 유원지 중 하나임",061-380-3142,전라남도 담양군 녹색관광과(관광시설담당),2022.6.30,4850000,전라남도 담양군
소쇄원,관광지,전라남도 담양군 가사문학면 소쇄원길 17,전라남도 담양군 가사문학면 지곡리 123,35.18433903,127.0121793,4060,관리사무소(매표소),,,조경 및 휴게시설,대가,,2008.5.2,600,90,"1983년 7월 20일 사적 제304호로 지정되었다가 2008년 5월 2일 명승 제40호로 변경되었다. 전체 면적은 4,060㎡(지정구역), 118,866㎡(보호구역)이다. 이곳은 물이 흘러내리는 계곡을 사이에 두고 각 건물을 지어 자연과 인공이 조화를 이루는 대표적 정원이다.",061-380-2811,전라남도 담양군 문화체육과(문화재담당),2022.6.30,4850000,전라남도 담양군
한국대나무박물관,관광지,전라남도 담양군 담양읍 죽향문화로 35,전라남도 담양군 담양읍 천변리 401-1,35.30934367,126.9764088,3300,관리사무소(매표소),,,조경 및 휴게시설,박물관앞집,,1991.6.27,260,150,"1981년에 죽물박물관이 개관된 후 전국 유일의 죽제품 주산지로서 보존, 전시, 시연, 판매 등 종합기능을 수행할 공간을 갖추어 대나무공예문화 전통 계승과 대나무공예 진흥의 계기를 마련하고자 1998년에 현재의 위치에 확장 이전하여 2003년에 한국대나무박물관으로 명칭을 변경하여 운영",061-380-2901,전라남도 담양군 대나무자원연구소(한국대나무박물관담당),2022.6.30,4850000,전라남도 담양군
한국가사문학관,관광지,전라남도 담양군 가사문학면 가사문학로 877,전라남도 담양군 가사문학면 지곡리 319,35.18796216,127.0054858,2022,한옥형 본관+매표소+화장실,,,기획전시실(갤러리)+자미정+세심정+토산품전시장+전통찻집,대가,,2018.4.11,250,90,"가사문학 관련 문화유산의 전승, 보전과 현대적 계승, 발전을 위하여 2000년 10월 완공. 1만 6,556㎡의 부지에 2,022㎡ 규모의 한옥형 본관과 기획전시실(갤러리), 자미정, 세심정, 토산품전시장, 전통찻집 등의 부대시설을 갖추고 있음",061-380-2701,전라남도 담양군 문화체육과(한국가사문학관담당),2022.6.30,4850000,전라남도 담양군
슬로시티삼지내마을,관광지,전라남도 담양군 창평면 돌담길 56-24,전라남도 담양군 창평면 창평리 113-1,35.23522516,127.0178498,15680,관리사무소+공중화장실,돌담집 민박+한옥애+하심당,,,약초밥상,,2007.12.1,470,300,"담양은 예로부터의 고택이 많이 남아 있으며 아직도 인근에 문화재가 많이 있다. 도심 인근의 농촌인데도 전통문화가 많이 남아 있어 현대와 전통이 조화를 이루고 있는 대표적 마을이기도 하다. 특히 삼지천 마을의 고택, 한옥마을에 펼쳐진 돌담길에서의 여유로운 산책은 방문객들의 슬로라이프 체험의 장이기도 하다.",061-380-3152,전라남도 담양군 녹색관광과(관광정책담당),2022.6.30,4850000,전라남도 담양군
화순온천,관광지,전라남도 화순군 백아면 옥리길 14-7,,35.1624699,127.0837781,512000,관리사무소+공중화장실+온천공+배수지+단지내도로 등,휴양콘도,아쿠아리움,온천장+종합유원시설,,,1984.9.24,3000,536,온천휴양지,061-379-3532,전라남도 화순군청,2022.7.6,4900000,전라남도 화순군
도곡온천,관광지,전라남도 화순군 도곡면 온천2길 44,,35.02470562,126.903529,646819,관리사무소+공중화장실+온천공+배수지+단지내도로 등,일반숙박업+무인텔 등,,온천장+일반유원시설,,,1989.10.27,4700,462,온천휴양지,061-379-3532,전라남도 화순군청,2022.7.6,4900000,전라남도 화순군
운주사,관광지,전라남도 화순군 도암면 천태로 91-44,,34.92906333,126.8825635,105495,야외공연장+하수처리장+잔디광장+화장실+주차장+사진문화관,,,,,,2008.5.15,1650,380,"천불천탑 사진문화관, 운주사 사찰",061-379-3531,전라남도 화순군청,2022.7.6,4900000,전라남도 화순군
대둔산도립공원,관광지,전라북도 완주군 운주면 대둔산공원길 23,,36.11708032,127.3328815,72.64,관리사무소+케이블카,관광호텔,,관리사무소+케이블카,관리사무소+케이블카,,2021.6.16,10000,300,사계절이 모두 아름다운 완주의 자랑이자 보물인 산,063-290-2742,전라북도 완주군청,2022.7.5,4720000,전라북도 완주군
모악산도립공원,관광지,전라북도 완주군 구이면 모악산길 91,,35.72946608,127.1098589,44.22,관리사무소+공영주차장,관광호텔,,관리사무소+공영주차장,관리사무소+공영주차장,,2021.6.16,10000,300,금산사를 안고있는 특히 봄의 풍경이 아름답기로 유명한 산,063-290-2753,전라북도 완주군청,2022.7.5,4720000,전라북도 완주군
고산자연휴양림,관광지,전라북도 완주군 고산면 고산휴양림로 246,,35.96224205,127.2328719,692,물놀이장+물썰매장+임간수련장+숲속의집+야영장+삼림욕장+등산로,산림휴양시설+자동차야영장,,물놀이장+물썰매장+임간수련장+숲속의집+야영장+삼림욕장+등산로,물놀이장+물썰매장+임간수련장+숲속의집+야영장+삼림욕장+등산로,,2021.6.16,5000,200,숲에서 산림욕을 즐길 수 있는 사계절 가족휴양지,063-290-2766,전라북도 완주군청,2022.7.5,4720000,전라북도 완주군
상관 공기마을 편백숲,관광지,전라북도 완주군 상관면 죽림편백길 191-24,,35.737491,127.2023884,86,공영주차장+공중화장실+관광안내소,콘도+리조트,,공영주차장+공중화장실+관광안내소,공영주차장+공중화장실+관광안내소,,2021.6.16,1000,100,10만그루의 빽빽한 편백나무가 우거진 숲,063-290-2624,전라북도 완주군청,2022.7.5,4720000,전라북도 완주군
대아수목원&대아호,관광지,전라북도 완주군 동상면 대아수목로 94-34,,35.97623865,127.3003851,150,수목원+천연림+건축시설+교육시설,관광숙박,,수목원+천연림+건축시설+교육시설,수목원+천연림+건축시설+교육시설,,2021.6.16,1000,145,대아저수지의 맑은 물과 수려한 자연경광 속에 자리하고 있는 곳,063-280-4590,전라북도,2022.7.5,4720000,전라북도 완주군
비비정,관광지,전라북도 완주군 삼례읍 비비정길 96-9,,35.90154901,127.071693,98,주차장,,,주차장,주차장,,2021.6.16,20,20,만경강의 아름다운 풍경을 한눈에 조망할 수 있는 곳,063-211-7788,비비정,2022.7.5,4720000,전라북도 완주군
비비정예술열차,관광지,전라북도 완주군 삼례읍 비비정길 73-21,,35.89880244,127.0676418,876,주차장+레스토랑+아트숍+카페,,,주차장+레스토랑+아트숍+카페,주차장+레스토랑+아트숍+카페,,2021.6.16,30,20,"1량은 레스토랑, 1량과 2량 사이의 공간은 음악공연, 2량은 특산물 판매점, 3량에는 편의점과 갤러리, 4량은 카페로 구성되어 있다",063-211-7788,전라북도 완주군청,2022.7.5,4720000,전라북도 완주군
삼례문화예술촌,관광지,전라북도 완주군 삼례읍 삼례역로 81-13,,35.90623513,127.0658535,11800,관리사무소+화장실(3동)+주차장,관광호텔,,관리사무소+화장실(3동)+주차장,관리사무소+화장실(3동)+주차장,,2021.6.16,150,30,수탈의 상징인 양곡창고를 문화예술의 중심지로 탈바꿈시켜 역사적 의미와 문화가 공존하는 삼례만의 독특하고 절묘한 공간,063-290-2614,전라북도 완주군청,2022.7.5,4720000,전라북도 완주군
삼례책마을,관광지,전라북도 완주군 삼례읍 삼례역로 68,,35.90745719,127.065756,2445,주차장+카페+무인서점,관광호텔,,주차장+카페+무인서점,주차장+카페+무인서점,,2021.6.16,120,30,전시와 공연 토크콘서트 등 다양한 프로그램을 운영하고 있는 곳,063-290-2614,전라북도 완주군청,2022.7.5,4720000,전라북도 완주군
그림책미술관,관광지,전라북도 완주군 삼례읍 삼례역로 48-1,,35.90832046,127.068059,757,주차장,관광호텔,,주차장,주차장,,2021.6.16,30,5,"그림책을 보고, 듣고, 느낄 수 있는 공간",063-290-2614,전라북도 완주군청,2022.7.5,4720000,전라북도 완주군
완주전통문화체험장,관광지,전라북도 완주군 고산면 대아저수로 416,,35.98879491,127.261342,1215,주차장+화장실,,,주차장+화장실,주차장+화장실,,2021.6.16,50,100,고즈넉한 한옥의 숨결을 느끼며 뛰어난 자연경관 속에 아늑한 휴식을 즐기기에 안성맞춤인 공간,070-4100-1100,전라북도 완주군청,2022.7.5,4720000,전라북도 완주군
청소년전통문화체험관,관광지,전라북도 완주군 고산면 대아저수로 416,,35.98879491,127.261342,2768,주차장+화장실,,,주차장+화장실,주차장+화장실,,2021.6.16,50,100,"전통문화를 기반으로 한 청소년들의 문화공간, 체험공간, 지역 내 전해 내려오는 역사의 흔적과 문화를 소재로 한 교육체험 공간",070-4100-1100,전라북도 완주군청,2022.7.5,4720000,전라북도 완주군
놀토피아,관광지,전라북도 완주군 고산면 대아저수로 416,,35.98879491,127.261342,397,주차장+화장실,,,주차장+화장실,주차장+화장실,,2021.6.16,200,100,국내 최대규모(34종류)를 자랑하는 심신발달형 어린이 모험 놀이시설,070-4100-1100,전라북도 완주군청,2022.7.5,4720000,전라북도 완주군
오성한옥마을,관광지,전라북도 완주군 소양면 오도길 73,,35.90695186,127.2367573,13856,주차장+숙박시설+카페,관광숙박+한옥체험,,주차장+숙박시설+카페,주차장+숙박시설+카페,,2021.6.16,500,100,종남산과 위봉산이 병품처럼 둘러쌓고 있는 천혜의 자연경관에 한옥고택 등 전통한옥이 자리잡고 있는 곳,063-243-1022,오성한옥마을,2022.7.5,4720000,전라북도 완주군
무궁화오토캠핑장,관광지,전라북도 완주군 고산면 고산휴양림로 89,,35.97398132,127.2315513,4664,주차장+화장실,자동차야영장,,주차장+화장실,주차장+화장실,,2021.6.16,400,100,문화체육관광부 국민여가캠핑장으로 조성된 공공야영장으로 52개 사이트와 캐러반 등 부대시설이 갖추어져 있는 곳,063-290-2762,전라북도 완주군청,2022.7.5,4720000,전라북도 완주군
송광사&벚꽃길,관광지,전라북도 완주군 소양면 송광수만로 255-16,,35.885763,127.2417509,30,주차장,,,주차장+템플스테이,주차장+템플스테이,,2021.6.16,100,40,송광사는 종남산 아래에 자리한 사찰로 신라시대에 도의선사가 창건한 것으로 전해진다,063-243-8091,송광사,2022.7.5,4720000,전라북도 완주군
위봉사&위봉폭포&위봉산성,관광지,전라북도 완주군 소양면 위봉길 53,,35.9105769,127.2572831,29,주차장,,,주차장,주차장,,2021.6.16,200,20,위봉사는 세마리 봉황이 날고 있는 자리에 절을 짓고 이름붙였다는 이야기가 전해져 오는 곳,063-243-7657,위봉사,2022.7.5,4720000,전라북도 완주군
화암사,관광지,전라북도 완주군 경천면 화암사길 271,,36.06629938,127.2872339,1083,주차장+공중화장실,,,주차장+공중화장실,주차장+공중화장실,,2021.6.16,50,20,세월의 흐름을 멋지게 담고있는 아름다운 사찰,063-261-7576,화암사,2022.7.5,4720000,전라북도 완주군
속초해수욕장,관광지,강원도 속초시 해오름로 186,강원도 속초시 조양동 1464-7,38.19014712,128.603531,228607,관리사무소+샤워탈의장+공중화장실+도로+주차장,리조트단지(호텔/콘도),해수풀장+X-게임장,해양관+휴게소+전망대+테마거리+조경휴양공간+다목적잔디광장,,,1984.7.6,50000,550,"해안선 길이 약2km, 백사장 길이 약 500m이며 수심이 얕아 가족단위 관광객이 선호하는 속초시 대표 관광지이다.",033-639-2544,강원도 속초시청,2022.7.6,4230000,강원도 속초시
척산온천,관광지,강원도 속초시 관광로 327,강원도 속초시 노학동 972-1,38.190269,128.5407013,154743,도로+주차장,호텔+아쿠아훼미리호텔+온천호텔+채플+pool빌라,헬스장,설악예방의학센터+월드스파+푸드코드+키즈캠프+레스토랑/카페동,,,2009.5.20,1100,350,"1971년 설립된 온천장으로 지하 4,000km 심도에서 발생한 온천수를 이용하며 설악산과 근접한 위치에 자리잡고 있다.",033-639-2544,강원도 속초시청,2022.7.6,4230000,강원도 속초시
설악한화리조트,관광단지,강원도 속초시 미시령로 2983번길 111,속초시 장사동 24-1,38.21030027,128.5287216,1314100,주차장+배수지+변전소+도로,휴양콘도미니엄3,골프장+플라잉폭스,온천장+드라마세트장,,,2010.10.8,10000,2000,"천연 온천수를 이용한 온천시설과 물놀이 시설을 갖춘 종합 테마파크이며, 설악 워터피아 등 다양한 부대시설은 완비하고 있다.",033-639-2544,강원도 속초시청,2022.7.6,4230000,강원도 속초시
부평아트센터,관광지,인천광역시 부평구 아트센터로 166,인천광역시 부평구 십정동 186-22,37.4822383,126.7049334,17236,수유실+놀이방,해당없음,해당없음,공연+전시,카페+레스토랑,유료,2015.5.6,600,259,뮤지컬+음악회+전시회 등,032-500-2000,인천광역시 부평문화재단,2022.7.1,3540000,인천광역시 부평구
기후변화체험관,관광지,인천광역시 부평구 장제로 267,인천광역시 부평구 갈산동 403,37.50932668,126.7307645,1279,수유실,해당없음,해당없음,생태교육체험,해당없음,무료,2017.2.20,100,4,생태교육프로그램 체험,032-509-3900,인천광역시 부평구청,2022.7.1,3540000,인천광역시 부평구
부평역사박물관,관광지,인천광역시 부평구 굴포로 151,인천광역시 부평구 삼산동 451-1,37.51214216,126.7379081,3108,해당없음,해당없음,해당없음,전시,카페,무료,2013.3.13,100,31,부평 역사관련 전시물 관람,032-515-6471,인천광역시 부평구청,2022.7.1,3540000,인천광역시 부평구
부평안전체험관,관광지,인천광역시 부평구 굴포로 110,인천광역시 부평구 삼산동 441-6,37.51098789,126.7333177,10240,해당없음,해당없음,해당없음,안전교육체험,카페,무료,2017.2.20,100,65,재난상황 시뮬레이션 체험,032-509-3940,인천광역시 부평구청,2022.7.1,3540000,인천광역시 부평구
인천나비공원,관광지,인천광역시 부평구 평천로 26-47,인천광역시 부평구 청천동 68-12,37.52026697,126.6927245,1674,수유실,해당없음,해당없음,전시,카페,무료,2017.2.20,500,24,살아있는 나비 등 관람,032-509-8824,인천광역시 부평구청,2022.7.1,3540000,인천광역시 부평구
용마폭포공원,관광지,서울특별시 중랑구 용마산로 250-12,서울특별시 중랑구 면목동 산 1-4,37.57335201,127.0891138,167172,수영장+축구장+배드민턴장,,클라이밍 경기장,,,,1997.5.10,100000,0,동양 최대의 인공폭포가 있는 명소,02-2094-2965,서울특별시 중랑구청 공원녹지과,2022.6.10,3060000,서울특별시 중랑구
망우리공원,관광지,서울특별시 망우로 570,서울특별시 중랑구 망우동 산 57-1,37.59835362,127.1148164,832800,주차장,,,,,,1933.5.27,100000,0,우리나라 근현대사 주요인물들이 영면하고 계신 역사와 문화가 살아 숨 쉬는 서울의 대표 공원,02-2094-1812,서울특별시 중랑구청 문화관광과,2022.6.10,3060000,서울특별시 중랑구
중랑캠핑숲,관광지,서울특별시 망우로87길 110,서울특별시 중랑구 망우동 76,37.606893,127.1106972,179666,주차장,,,,,,2010.11.20,100000,0,학생소풍 및 가족단위 피크닉을 주제로 한 체험형 공원(캠핑장),02-434-4371,서울시특별시 중부공원녹지사업소,2022.6.10,3060000,서울특별시 중랑구
옹기테마공원,관광지,서울특별시 신내로21길 116,서울특별시 중랑구 신내동 777,37.61265372,127.0885194,9000,옹기정원,,,,,,2017.3.15,100000,0,다양한 전통문화 체험프로그램 참여가 가능한 옹기를 테마로 조성된 공원,02-2094-1813,서울특별시 중랑구청 문화관광과,2022.6.10,3060000,서울특별시 중랑구
천안종합휴양관광지,관광지,충청남도 천안시 동남구 성남면 종합휴양지로 200,,36.75731215,127.2240961,748020,주차장,콘도미니엄,워터파크,미술관+공연장,식당,,1996.7.2,5000,500,"중부권 최대의 온천관광지로 워터파크, 휴양콘도, 천안예술의 전당이 있음.",041-906-7000,소노벨 천안,2022.6.27,4490000,충청남도 천안시
태조산관광지,관광지,충청남도 천안시 동남구 태조산길 261,,36.82207666,127.1889559,331000,주차장,,,조각공원,,,1985.7.24,10000,300,유량동 태조산 아래에 자리잡힌 넓은 공원으로 천안시민들의 문화ㆍ휴식 공간,041-550-2520,천안시시설관리공단,2022.6.27,4490000,충청남도 천안시
춘향테마파크,관광지,전라북도 남원시 양림길 14-9,,35.401464,127.386902,66462,주차장,,,,,,2004.5.1,1000,255,"남원시 양림길 남원관광지내에 소재한 곳(3만 5천평 규모)으로 임권택 감독의 영화 [춘향뎐]의 촬영 장소를 포함하여 사랑의 테마가 있는 관광지로 조성한 곳이다. [춘향뎐]의 지고지순한 사랑을 오늘을 살아가는 이들의 마음속에 담아내 과거의 사랑과 이제 사랑을 시작하는 이들이 사랑의 추억을 만들 수 있도록 조성돼 있고 만남의 장, 맹약의 장, 춘향뎐 영화세트장, 축제의 장 등 사랑의 5개 마당으로 춘향테마의 일대기를 재현하고 있다. 또한 철저한 고증을 거쳐 완성된 동헌, 관아, 내아, 월매집, 부용당, 옥사정을 비롯해 조선 중기 서민들의 삶이 깃든 고건물들이 들어서 있어 조선 중기 서민문화와 춘향의 삶을 제대로 이해할 수 있도록 조성되어 있다.",063-620-5797,전라북도 남원시청,2022.6.15,4700000,전라북도 남원시
남원항공우주천문대,관광지,전라북도 남원시 양림길 48-63,,35.399194,127.387388,6532,주차장,,,,,,2009.10.1,1000,10,"남원항공우주천문대는 2009년 10월 9일에 개관하여 서남권 관광문화의 중심 도시인 남원 및 인근지역 어린이, 청소년에게 천문우주 및 첨단 항공과학 체험 기회를 제공하고 또한 가족 단위와 단체가 함께 즐길 수 있는 가족 체험시설로 관광수요 창출 및 지역경제 활성화에 기여하고 있습니다.",063-620-8988,전라북도 남원시청,2022.6.15,4700000,전라북도 남원시
남원시립김병종미술관,관광지,전라북도 남원시 함파우길 65-14,,35.398706,127.389555,1442,주차장,,,커피숍,,,2018.3.2,1000,25,"전라북도 남원시 춘향테마파크 내에 위치한 남원시립김병종미술관은 2018년 3월 2일에 개관하였습니다. 남원시에서 직접 운영하는 공립미술관으로서 시민들의 문화예술 향유를 통한 삶의 질 향상과 지역 출신 작가들의 전시 공간 마련을 통해 지역 미술의 특성을 알리는데 설립 목적이 있습니다. 특히 남원 출신의 김병종(b.1953) 작가가 본인의 대표작을 남원시에 대량 기증하면서 콜렉션의 기반을 갖추었습니다. 숲으로 둘러싸인 남원시립김병종미술관은 전원형(田園形) 미술관으로서 바쁜 일상에 지친 현대인들이 찾아와 미술작품 뿐 아니라 자연을 감상하고, 마음을 치유하는 복합 문화시설입니다. 또한 문학인으로 유명한 김병종 작가가 기증한 각종 문학 관련 자료들을 선보여, 미술과 문학이 공존하는 공간이기도 합니다. 약 2,000권의 미술·문학·인문학 관련 도서가 비치된 북카페도 이 같은 미술관의 독특한 역할에 일조하고 있습니다",063-620-5660,전라북도 남원시청,2022.6.15,4700000,전라북도 남원시
혼불문학관,관광지,전라북도 남원시 사매면 노봉안길 52,,35.481096,127.319992,16653,주차장,,,,,,2004.10.1,1000,30,"현대 문학의 백미라고 할 수 있는 소설 “혼불”과 작가 최명희 선생의 문학정신을 널리 선양하고 전승, 보존하기 위하여 2004년 10월에 국고와 지방비 포함 49억을 들여서 이곳 노봉마을에 혼불문학관을 개관하게 되었습니다.",063-620-5744,전라북도 남원시청,2022.6.15,4700000,전라북도 남원시
국악의 성지,관광지,전라북도 남원시 운봉읍 비전길 69,,35.459997,127.569101,74540,주차장,,,야외공연장,,,2007.10.31,1000,50,"민족의 영산 지리산 자락 운봉에 위치하고 있는 국악의 성지는 우리 민족의 전통과 혼이 담긴 국악의 본 고장이요, 성지임을 널리 알리기 위해 국악을 사랑하는 모든 분들의 염원을 모아 조성하였다.",063-620-6905,전라북도 남원시청,2022.6.15,4700000,전라북도 남원시
지리산허브밸리,관광지,전라북도 남원시 운봉읍 바래봉길 214,,35.435092,127.548617,720907,주차장,,,,,,2005.1.1,1000,150,"국내 최대의 철쭉 군락지를 보듬고 있는 지리산 바래봉해발 600m 지역인 남원시 운봉읍 용산리 일대에 자리하고 있으며,2005년 정부로부터 지리산 웰빙 허브산업특구로 지정받은 지역입니다.지리산의 자연 속에서 허브의 모든 것을 즐길 수 있는 지리산허브밸리는대한민국 허브산업의 중심지입니다.",063-620-6254,전라북도 남원시청,2022.6.15,4700000,전라북도 남원시
남원백두대간생태교육장전시관,관광지,전라북도 남원시 운봉읍 운봉로 151,,35.397328,127.5079302,33000,주차장,,어린이 놀이시설,야외공연장,,,2016.4.26,1000,95,"지리산의 상징성과 백두대간의 역사·생태·보존의 최적지인 남원에 백두대간 생태교육장 전시관이 조성되었습니다. 전시관은 한반도 지도 형상을 본 따 만든 곡선의 전시관 지붕외관에서부터 우리나라의 중심축인 백두대간의 모든 것을 알고 보고 체험 할 수 있는 갖가지 내용물 등이 전시되어 있습니다. 전시관 주요시설로는 상설전시실, 기획전시실, 호남 최초로 시도하는 5D서클영상관, 카페테리아 등이 있으며 부대시설로는 야외공연장, 곤충온실, 체육시설 등이 있습니다",063-620-5752,전라북도 남원시청,2022.6.15,4700000,전라북도 남원시
만인의총,관광지,전라북도 남원시 만인로 3,,35.420404,127.377325,10866,주차장,,,,,,1981.4.1,1000,50,만인의총은 정유재란(1597년)때 남원성 전투에서 순절한 민·관·군 1만여 의사들의 호국의 얼이 서려있는 성스러운 곳이다,063-636-9321,문화재청,2022.6.15,4700000,전라북도 남원시
아담원,관광지,전라북도 남원시 이백면 목가길 193,,35.440571,127.476826,26446,주차장,,,커피숍,,,2018.8.1,1000,40,"아담원은 본래 나무를 키우던 조경농원이었던 곳으로 지난 10년간 정성으로 가꾸어 아름다운 정원으로 재탄생 하였습니다. 나무 한 주, 풀 한포기까지 엄선하여 심고, 관리하여 지리산자락의 비경과 함께 훌륭한 힐링의 장을 제공해 줄 것입니다. 아무쪼록 방문하시어 편안한 휴식을 만끽하시길 바랍니다",063-635-8342,아담원,2022.6.15,4700000,전라북도 남원시
남원관광지,관광지,전라북도 남원시 양림길 12,,35.402481,127.386137,909510,관리사무소+주차장+화장실,켄싱턴리조트+춘향가호텔+남원파크+호텔춘향+리버모텔+드라마모텔+마음호텔,오리보트장+궁술장,남원랜드+국립국악원+동백연죽전시장+춘향테마파크+향토박물관+사랑의 광장,,,1985.10.10,1000,255,"남원하면 떠오르는 모든 상징물과 위락시설들을 모아 놓은 종합관광단지이다. 남원시 어현동 일대에 자리하고 있다. 한국관광공사가 조성한 남원관광단지에는 춘향전과 관련된 춘향테마파크, 춘향문화예술회관을 비롯해 국립민속국악원, 남원향토박물관 등의 문화시설이 있다.",063-620-8911,전라북도 남원시청,2022.6.15,4700000,전라북도 남원시
농월정,관광지,경상남도 함양군 안의면 농월정길 9-35,경상남도 함양군 안의면 월림리 727-1,35.62464301,127.7815571,138110,도로+주차장+관리사무소+화장실,,,캐빈하우스+오토캠핑장,,,1996.4.18,2000,150,"안의 삼동 중에서 화려한 자연의 미를 간직한 곳이 화림동이다. 화림동은 안의에서 전북 장수군으로 통하는 국도 26호선을 따라 약 4km를 가면 굽이치는 물가에 아담한 마을하나를 발견할 수 있는데, 이 곳이 화림동의 정수 농월정이 있는 곳이다. 화림동은 남덕유산에서 발원하는 금천이 굽이치며 흘러 팔담팔정을 이루었다. 그래서, 옛부터 화림동을 정자문화의 보고라 한다. 지금도 농월정을 비롯한 4개의 고풍스런 정자가 남아 있다. 특히 농월정은 달을 희롱하며 논다는 옛날 우리 선조들의 풍류사상이 깃든 곳, 함양을 찾은 많은 시인과 묵객들이 필히 거쳐간 곳이다. 이 곳 녹수를 사이에 둔 양쪽 산기슭의 송림은 거문고 현을 퉁기는 듯하며, 길게 늘어선 수양버들은 천줄기의 실로 낚시질을 하는 듯 보인다. 맑은 물이 급한 굴곡을 이루는 곳에 커다란 반석이 펼쳐져 있다. 반석위를 흐르는 물이 달빛을 받아 금물결을 이루는 이 곳에 세워진 고색창연한 농월정은 이름 그대로 달을 희롱하고 있는 듯하다. 크기를 짐작할 수 없을 정도로 거대한 월연암이라 이름 붙은 너럭바위 위로 미끄럼타듯 물살이 세차게 흐르고, 물길따라 골이 깊게 패였다. 월연의 맑은 물에서 물장구치며 노는 개구쟁이들의 모습과 아름다운 풍경은 한 폭의 동양화가 되어 지나는 행인의 발걸음을 멈추게 한다.",055-960-4520,경상남도 함양군청,2022.7.1,5460000,경상남도 함양군
달성토성마을,관광지,대구광역시 서구 국채보상로 83길 21 (비산동) 일대,대구광역시 서구 비산동 404-5,35.87331563,128.5753765,45000,행복한 날뫼골 공방,,,채비천연염색공방+전양순자수박물관+마을도서관 햇빛따라+퍼팩토리소극장,달성토성마을 다락방,,2015.6.1,8000,26,집안에 있는 화분을 골목으로 꺼내놓으며 시작된 골목정원,053-663-2184,대구광역시 서구청,2022.6.28,3430000,대구광역시 서구
오수의견관광지,관광지,전라북도 임실군 오수면 충효로 2096-16,"전라북도 임실군 오수면 오수리 33, 임실군문화체육센터",35.54520338,127.3326779,117490,관리사무소+화장실(1동)+주차장,,,,,,2010.1.1,600,200,경관이 수려하고 편의시설이 있음,063-640-2941,전라북도 임실군청,2022.6.15,4760000,전라북도 임실군
사선대관광지,관광지,전라북도 임실군 관촌면 사선2길 68-7,"전라북도 임실군 관촌면 관촌리 222, 사선대 관리 사무소",35.672357,127.2746265,166000,관리사무소+화장실(4동)+주차장,,,,,,2004.1.1,1000,251,경관이 수려하고 편의시설이 있음,063-640-2921,전라북도 임실군청,2022.6.15,4760000,전라북도 임실군
율포해수욕장,관광지,전라남도 보성군 회천면 우암길 24,전라남도 보성군 회천면 동율리 678,34.67002926,127.0890241,34625,관광안내소+화장실+샤워실+주차장,휴양콘도미니엄,,해수욕장+해수녹차탕+오토캠핑리조트,,,2005.5.12,1500,100,"2012년 전국3대 우수해변, 2016년 해양수산부가 추천하는 올 여름 바다여행지 10선에 선정된 율포솔밭해변은 폭 60m와 길이 1.2km에 이르는 은빛 모래밭에 50~60년생의 소나무들이 숲을 이뤄 운치를 더한다.  공해없는 청정해역이므로 깨끗한 바다를 즐길 수 있고 1991년 국민관광지로 지정되어 각종 편의시설이 잘 갖춰져있다. 해수녹차 휴게센터와 해수풀장, 그리고 녹차탕까지 있어 어린이를 동반한 가족단위 피서지로 많은 관광객들이 여름철에 이곳을 찾고 있다.",061-850-5211,전라남도 보성군청,2022.6.28,4890000,전라남도 보성군
한국차문화공원,관광지,전라남도 보성군 보성읍 녹차로 775,전라남도 보성군 보성읍 봉산리 1197,34.71987643,127.0817099,90067,관광안내소+화장실+주차장,휴양콘도미니엄,,실내정원+한국차박물관+야외공연장+청소년수련원+천문과학관,,,2003.8.29,200,150,"한국차박물관+세계차나무식물원+보성차품평관+다목적 야외공연장+차만들어보는 곳+청소년 수련원 등이 푸른녹차밭과 어우러져 있어 관람 및 휴식, 체험이 가능하다. 특히 한국차박물관은 천혜의 차밭 경관과 인접하고 차에 대한 풍부한 컨텐츠를 담은 차 전문 박물관으로 우리 차 문화의 올바른 정립 및 연구와 보급의 구심점 역할을 한다.",061-852-0918,전라남도 보성군청,2022.6.28,4890000,전라남도 보성군
황령산관광지,관광지,부산광역시 수영구 황령산로 156,부산광역시 수영구 광안동 산 60-1,35.1552432,129.1029084,174890,관리사무소+화장실+주차장,,,,,,1987.3.2,10000,80,"부산광역시 금련산청소년수련원 일대이며, 부산 도심 속 천혜의 황령산 자락에 위치하고 있어 부산의 랜드마크인 광안리 해수욕장, 광안대교, 해운대를 한눈에 바라볼 수 있음.",051-610-3211,금련산청소년수련원,2022.6.28,3380000,부산광역시 수영구
고구려대장간마을,관광지,경기도 구리시 우미내길 41,경기도 구리시 아천동 산45-1,37.56080787,127.1109492,4928,관리사무소+화장실+주차장,,,,,,2008.4.25,200,100,국내유일의 고구려 박물관으로 아차산에서 출토된 유물을 전시하고 있으며 고구려모습을 보여주는 야외전시관을 운영,031-550-8355,경기도 구리시청,2022.6.2,3980000,경기도 구리시
동구릉,관광지,경기도 구리시 동구릉로 197,경기도 구리시 인창동 66-1,37.6171286,127.136334,1969675,관리사무소+화장실+주차장,,,,,,1970.5.26,5000,109,유네스코 세계유산이자 사적 제193호로 지정된 「구리 동구릉(東九陵)」은 ‘도성(都城)의 동(東)쪽에 있는 아홉(九) 기의 왕릉’이라 하여 동구릉이라 붙여짐,031-563-2909,문화재청,2022.6.2,3980000,경기도 구리시
운암제,관광지,,광주광역시 북구 운암동 1181-76,35.18259552,126.8817752,29000,주차장,,,,,,1981.8.20,100,10,중외공원과 운암제를 잇는 무지개다리를 볼 수 있음,062-510-1225,광주광역시 북구청,2022.1.1,6290000,광주광역시
우장춘기념관,관광지,부산광역시 동래구 우장춘로62번길 7(온천동),부산광역시 동래구 온천동 850-48,35.213515,129.0720181,1241,화장실,,,,,,1999.10.21,100,2,씨 없는 수박으로 우리 모두에게 잘 알려진 세계적 육종학자인 故우장춘박사의 탄생 1백주년을 맞아 그의 생전 연구 활동 유적지,051-550-6602,동래구 문화시설사업소,2022.6.8,3300000,부산광역시 동래구
장영실과학동산,관광지,부산광역시 동래구 동래역사관길 18(복천동),부산광역시 동래구 복천동 1-2,35.20916308,129.0896688,1177,화장실(2동),,,,,,2009.10.15,10000,50,"동래출신 조선시대 세종당시 최고의 과학자인 장영실이 만든 세계최고의 옛 천문의기 18종 19점을 동래읍성북문광장 1,177㎡에 시비 5억을 투입하여 2009. 6. 16.부터 2009.10.15.까지 4개월에 걸쳐 사업을 완료하였다.",051-550-6604,동래구 문화시설사업소,2022.6.8,3300000,부산광역시 동래구
박차정의사생가,관광지,부산광역시 동래구 명륜로 98번길 129-10(칠산동),부산광역시 동래구 칠산동 319-1,35.20169645,129.090397,379,화장실,,,,,,2005.7.8,50,0,"박차정의사 생가 복원사업은 항일독립운동가이자 한국여성해방운동의 선구자인 박차정의사의 남편 김원봉(임시정부국무위원, 북한노동상, 국가검열상)의 사회주의적 성향으로 군사정부시절 대우를 받지 못하다가 1995년 광복 40주년에 문민정부로부터 “대한민국 건국훈장 독립장”을 추서받은 지 10년만인 2005년 7월 8일 완공하였다.",051-860-7880,동래구 문화시설사업소,2022.6.8,3300000,부산광역시 동래구
금강공원,관광지,부산광역시 동래구 우장춘로 155 (온천동),부산광역시 동래구 온천동 291-1,35.21962513,129.075758,3093953,관리사무소+화장실+주차장,,,,,,1940.11.10,10000,216,"울창한 숲과 기암절벽, 골짜기 마다 흐르는 맑은 시냇물 등이 신선경에 들어선 느낌을 주며, 봄철부터 겨울철에 이르기까지 인적이 끊이지 않는 근린공원으로서 남녀노소 누구나가 즐길 수 있는 휴식처로 사랑을 받고 있다",051-860-7880,부산시설공단,2022.6.8,3300000,부산광역시 동래구
허심청,관광지,부산광역시 동래구 온천장로107번길 32 (온천동),부산광역시 동래구 온천동 137,35.221157,129.0826889,4300,안내데스크+화장실+주차장,,,,,,1991.10.1,3000,200,허심청은 종래의 위락 시설과는 달리 편안하고 즐거운 온천욕과 휴식 및 체력단련을 통한 건강증진을 추구하는 새로운 유형의 도시형 온천건강랜드이다,051-550-2200,호텔농심,2022.6.8,3300000,부산광역시 동래구
복천박물관,관광지,부산광역시 동래구 복천로 63(복천동),부산광역시 동래구 복천동 16-5,35.20877662,129.0911741,4000,안내데스크+화장실+주차장,,,,,,1996.7.26,1000,30,"삼한시대부터 삼국시대까지 부산의 역사를 보여주는 고고전문박물관으로서, 현재 7차에 걸친 발굴조사로 밝혀진 169기의 유구와 각종 토기 및 철기류 등의 유물을 종합 전시하고있다",051-550-0311,복천박물관,2022.6.8,3300000,부산광역시 동래구
충렬사,관광지,부산광역시 동래구 충렬대로 345,부산광역시 동래구 안락동 421-33,35.199577,129.0959922,95804,안내소+화장실(1동)+주차장,,,,,,1972.6.26,10000,10,충렬사는 임진왜란 때 순절한 동래부사 송상현 공을 모시기 위해 1605년(선조 38년) 당시의 동래부사 윤훤(尹暄)이 동래읍성 남문 근처의 농주산에 송공의 위패를 모신 송공사(宋公祠)를 지어 매년 제사를 지낸 것이 그 시초이다. 그 후 1624년(인조 2년) 선위사(宣慰使) 이민구의 청으로 충렬사라는 사액(賜額)이 내려짐에 따라 송공사는 충렬사로 이름이 바뀌었다.,051-523-4223,충렬사관리사무소,2022.6.8,3300000,부산광역시 동래구
해양자연사박물관,관광지,부산광역시 동래구 우장춘로 175 (온천동),부산광역시 동래구 온천동 산 13-1,35.2219498,129.075647,21538,안내소+화장실,,,,,,1994.6.10,1000,0,"1994년 6월 10일 동래구 온천동 금강공원 내에 개관한 부산해양자연사박물관은 전국 최초, 최대규모의 해양자연사분야의 전문박물관으로",051-593-4944,부산해양자연사박물관,2022.6.8,3300000,부산광역시 동래구
표충비,관광지,경상남도 밀양시 무안면 동부동안길4,,35.471582,128.6520376,7122,화장실,모텔,,,,,1972.2.12,100,50,표충비는 국가의 중대사가 있을때를 전후하여 비면에 자연적으러 땀방울이 맺혀서 마치 구슬처럼 흐르는데 이것을 두고 사람들은 나라와 겨례를 염려하는 사명대사의 영험이라고 신성시 하고 있음,055-359-5639,경상남도 밀양시청,2022.5.30,5360000,경상남도 밀양시
작원관지,관광지,경상남도 밀양시 삼랑진읍 작원관지길 77,경상남도 밀양시 삼랑진읍 검세리 135,35.39853126,128.8665763,16000,화장실,모텔,,,,,1990.1.1,100,50,김해와 낙동강 유역에 창궐하던 왜적들의 침공을 방비하던 요새지,055-359-5639,경상남도 밀양시청,2022.5.30,5360000,경상남도 밀양시
예림서원,관광지,경상남도 밀양시 부북면 예림서원로128,,35.46605971,128.7299691,41367,화장실,모텔+관광호텔,,,,,1988.1.1,100,50,예림서원은 영남유림의 종장인 점필재 김종직을 사숙하던 후학들의 교육기관,055-359-5639,경상남도 밀양시청,2022.5.30,5360000,경상남도 밀양시
밀양향교,관광지,경상남도 밀양시 밀양향교3길 19 (교동),,35.50660573,128.7545381,5068,화장실,모텔+관광호텔,,,,,1983.8.12,150,50,밀양향교는 고려시대(1100년경)때 창립되어 임진왜란때 불타 버린것을 1602년 부사 최기가 중건하여 지금까지 현존하고 있는 건물임,055-359-5639,경상남도 밀양시청,2022.5.30,5360000,경상남도 밀양시
밀양관아,관광지,경상남도 밀양시 중앙로348,,35.49429512,128.754331,7110,화장실,모텔+관광호텔,,,,,2010.4.1,200,50,"조선시대 밀양부 관아의 창건연대는 정확히 알 수 없으며, 1612년에 원유남 부사가 부임하면서 원래 자리에 관아를 복원 하였음",055-359-5639,경상남도 밀양시청,2022.5.30,5360000,경상남도 밀양시
밀양영남루,관광지,경상남도 밀양시 중앙로324,,35.49154522,128.755608,12931,화장실,모텔+관광호텔,,,,,1963.1.21,200,50,우리나라 3대 누각중에 하나이며 보물제147호임,055-359-5639,경상남도 밀양시청,2022.5.30,5360000,경상남도 밀양시
만어사,관광지,경상남도 밀양시 삼랑진읍 만어로776,,35.454932,128.846222,115149,화장실,펜션+모텔,,,,,1968.12.19,200,50,해발674m의 만어산 8부 능선에 위치하고 있는 만어사는 가라국 수로왕이 창건한 유서 깊은 사찰,055-359-5639,경상남도 밀양시청,2022.5.30,5360000,경상남도 밀양시
표충사,관광지,경상남도 밀양시 단장면 표충로1338,,35.532294,128.959045,29751,화장실,산장+펜션+모텔,,,,,1974.12.28,1000,200,표충사는 유생들을 교육하고 성현들이 제사하는 표충서원이 사찰영역안에있어 불교와유교가 한자리에 공존하는 특색있는 사찰,055-359-5639,경상남도 밀양시청,2022.5.30,5360000,경상남도 밀양시
부석사관광지,관광지,경상북도 영주시 부석면 부석사로 298,경상북도 영주시 부석면 북지리 301-4,36.99435088,128.6797054,242280,관광안내소+광장+화장실+보행자도로 등,,,피크닉마당+부석사 이야기길+의상대사 스토리원 등,상가 등,,2012.6.11,779,540,소백산 자연환경을 배경으로 한 천년고찰 부석사를 직접 참여하고 머무르는 다양한 체험 및 관광활동 제공,054-639-6617,경상북도 영주시청,2022.6.14,5090000,경상북도 영주시
장계관광지,관광지,충청북도 옥천군 안내면 장계1길 57,충청북도 옥천군 안내면 장계리 산7-1,36.37728877,127.6356203,198705,향토전시관(관리실)+화장실(3동)+주차장,없음,없음,공연장,없음,없음,1986.6.7,1000,250,"아름다운 대청호반이 한눈에 내려다보이며, 향토자료 및 시문학 작품을 감상할 수 있음",043-730-3721,충청북도 옥천군청,2022.6.9,4430000,충청북도 옥천군
금강하구둑관광지,관광지,충청남도 서천군 마서면 장산로 855번길 56-2,충청남도 서천군 마서면 도삼리 71-5,36.01993599,126.736726,175384,종합안내소+주차장+화장실,,,,,,1993.9.22,5000,486,"금강을 경계로 군산과 인접하고 있으며, 철새도래지로 유려한 철새군무를 볼수 있고 먹거리가 풍부함",041-950-4018,충청남도 서천군청,2022.6.16,4580000,충청남도 서천군
춘장대,관광지,충청남도 서천군 서면 춘장대길 20,충청남도 서천군 서면 도둔리 1319,36.16334922,126.5243355,298930,종합안내소+주차장+화장실+취사장,,,,,,1977.4.21,100000,300,국내 유일의 해송림 해수욕장으로 캠핑장과 조개잡이 체험등 다양한 즐길거리와 인근 동백정 마량항등 볼거리도 풍부,041-950-4091,충청남도 서천군청,2022.6.16,4580000,충청남도 서천군
온달관광지,관광지,충청북도 단양군 영춘면 온달로 23,충청북도 단양군 영춘면 하리 147,37.06295564,128.4929221,97567,화장실+주차장,,드라마세트장+온달동굴,온달전시관,,,1994.9.6,2000,265,온달관광지,043-423-8820,단양관광공사,2022.6.15,4480000,충청북도 단양군
천동관광지,관광지,충청북도 단양군 단양읍 다리안로 520,충청북도 단양군 단양읍 천동리 201,36.97401141,128.4165952,26594,화장실+주차장,야영장,물놀이장+천동동굴,,,,1984.11.28,2000,80,천동관광지,043-423-3589,단양관광공사,2022.6.15,4480000,충청북도 단양군
경산온천,관광지,경상북도 경산시 남산면 상대로116길 18,경상북도 경산시 남산면 상대리 528,35.78037855,128.7922287,262060,상대온천웨딩홀+커피,관광호텔,,교육문화회관,,,1987.12.15,100,100,"상대온천관광호텔은 경산 시내에서 자동차로 30분가량 걸리는 산속 마을에자리잡고 있어 처음 찾기는 어려우나, 수질이 좋아 한번 찾아온 사람은 반드시다시 찾아온다고 한다. 신라 시대부터 더운 바위샘온암정(溫巖井), 대추골 더운샘,온수골이라 불렸으며, 한겨울에도 물이 얼지 않아 빨래터로 이용했다. 수량이풍부한 데다 한국에서는 보기 드물게 알칼리성이 강한 황산천이다. 맑고 깨끗한온천수에 황산이온, 염소, 과망간산칼륨 등 2,500여 종의 각종 미네랄이 함유돼 있다.피부병·신경통·위장병·비뇨기질환·동맥경화증에 효과가 좋다고 알려져 있다. 특히위장병에 좋다고 해서 온천수를 그대로 마시는 사람들도 있다.객실은 양실과 한실로 구성돼 있으며, 연회장, 가족탕, 온천사우나, 토산품점, 예식홀,커피숍, 숲속 카페, 교육문화회관 등 부대시설을 갖추고 있다. 053)815-8001",053-810-5363,경상북도 경산시청,2022.6.7,5130000,경상북도 경산시
무극전적국민관광지,관광지,충청북도 음성군 음성읍 생음대로 594,충청북도 음성군 음성읍 소여리 897,36.95063812,127.6470132,18499,감우재전승기념관+화장실+주차장,,,,,,1985.6.8,100,15,6·25전쟁 당시 격전지였던 곳으로써 남한이 최초로 승전하여 국군의 사기를 드높였음,043-871-5930,충청북도 음성군청,2022.6.16,4470000,충청북도 음성군
우수영관광지,관광지,전라남도 해남군 문내면 관광레저로 1,전라남도 해남군 문내면 학동리 1021,34.57257374,126.3101147,250821,전망대+화장실,유스호스텔,인조구장+명량해상케이블카+스카이워크,해전사기념전시관+명량대첩비,,주차장,1986.1.4,3000,500,이순신장군의 명량대첩의 감동이 살아있는 관광지,061-530-5541,전라남도 해남군청,2022.6.13,4930000,전라남도 해남군
땅끝관광지,관광지,전라남도 해남군 송지면 땅끝마을길 100,전라남도 해남군 송지면 송호리 1158-5,34.29471348,126.5250233,665884,전망대+화장실,황토나라테마촌,땅끝모노레일+놀이터,오토캠핑장+땅끝해양자연사박물관+전망대,,주차장,1986.6.7,10000,800,한반도의 최남단이자 삼천리 금수강산의 시작점으로 희망을 상징하는 관광지,061-530-5544,전라남도 해남군청,2022.6.13,4930000,전라남도 해남군
경천대관광지,관광지,경상북도 상주시 사벌국면 경천로 652,경상북도 상주시 사벌국면 삼덕리 1-13,36.45722382,128.2478641,209000,관리사무소+주차장+화장실(5동)+관광안내센터+상하수도,경천대펜션,눈썰매장+써바이벌장,수영장+종합유원시설,관광식당,,1987.6.20,3000,213,"낙동강 1,300여 리 물길 중 강의 이름이 되었을 정도로 태고의 신비를 간직한 경천대는 깎아지른 절벽과 노송으로 이루어진 절경이 빼어난 곳으로, 하늘이 스스로 내렸다고 해 자천대라고도 함",054-537-7127,경상북도 상주시청,2022.6.16,5110000,경상북도 상주시
회상나루관광지,관광지,경상북도 상주시 중동면 갱다불길 97,경상북도 상주시 중동면 회상리 764,36.44187503,128.2657793,165000,관리사무소+주차장+화장실(2동)+상하수도,객주촌(펜션),학(철새) 전망대,문학관,주막촌(식당),,2013.12.30,1500,159,"낙동강 회상나루의 새로운 해석과 재현을 통해 주막, 역원 등을 소재로 전통한옥으로 지은 주막촌, 객주촌, 낙동강 문학관 등이 조성되어 관광객들에게 편의를 제공함",054-537-7126,경상북도 상주시청,2022.6.16,5110000,경상북도 상주시
이바구공작소,관광지,부산광역시 동구 망양로486번길 14-13,부산광역시 동구 초량동 875-2,35.11709939,129.0338233,265.77,화장실+주차장,,,,,,2013.2.21,15,4,산복도로 사람들의 삶과 지역문화를 전시하는 아카이브센터이다,051-440-4815,부산광역시 동구청 문화체육관광과,2022.6.9,3270000,부산광역시 동구
장기려더나눔센터,관광지,부산광역시 동구 영초윗길 48,부산광역시 동구 초량동 856-31,35.11853593,129.0326526,383.05,화장실+주차장,,,,,,2013.4.1,15,2,장기려박사의 뜻을 기리는 기념관이다,051-440-4815,부산광역시 동구청 문화체육관광과,2022.6.9,3270000,부산광역시 동구
이바구충전소,관광지,부산광역시 동구 영초윗길 25,부산광역시 동구 초량동 974-4,35.11735028,129.034686,76.62,화장실,,,,,,2020.1.1,5,0,"명란로드 명물, 명란파스타를 직접 만들어 시식할 수 있는 명란셀프쿠킹 클래스를 체험할 수 있다.",051-440-4815,부산광역시 동구청 문화체육관광과,2022.6.9,3270000,부산광역시 동구
168계단 부대시설,관광지,부산광역시 동구 영초윗길26번길 14,부산광역시 동구 초량동 994-520,35.1176995,129.0353474,179.6,화장실,,,,,,2016.4.20,0,0,부산항에서 산복도로를 잇는 가장 빠른 지름길이다,051-440-4815,부산광역시 동구청 문화체육관광과,2022.6.9,3270000,부산광역시 동구
김민부전망대,관광지,부산광역시 동구 영초윗길26번길 14,부산광역시 동구 초량동 994-520,35.1176995,129.0353474,179.6,전기시설,,,,,,2016.4.20,0,0,부산 동구출신의 김민부 시인을 기리기위해 만들어진 전망대이다,051-440-4815,부산광역시 동구청 문화체육관광과,2022.6.9,3270000,부산광역시 동구
유치환의 우체통,관광지,부산광역시 동구 망양로580번길 2,부산광역시 동구 초량동 827-44,35.12209588,129.0338423,111,화장실,,,,,,2013.3.8,10,0,청마유치환선생을 기리기 위해 지어진곳 3층에 그리움이있는 느린우체통이 명소이다,051-440-4815,부산광역시 동구청 문화체육관광과,2022.6.9,3270000,부산광역시 동구
소흥관(한중우호센터),관광지,부산광역시 동구 초량중로 36,부산광역시 동구 초량동 546,35.11507608,129.0375502,226.05,화장실,,,,,,2019.8.27,10,0,소흥시와 동구의 우호계약을 맺은 기념으로 만들어진곳으로 한복과 치파오체험을 할수있다,051-440-4815,부산광역시 동구청 문화체육관광과,2022.6.9,3270000,부산광역시 동구
만화체험관,관광지,부산광역시 동구 성북로 42-1,부산광역시 동구 범일동 1405-1,35.13778041,129.0497944,430,화장실+주차장,,,,,,2017.5.11,10,2,관광객의 볼거리와 재래시장 활성화를 위해 조성된 웹툰거리 내에 위치한 체험관,051-440-4815,부산광역시 동구청 문화체육관광과,2022.6.9,3270000,부산광역시 동구
안용복기념 부산포개항문화관,관광지,부산광역시 동구 증산로 100,부산광역시 동구 좌천동 722,35.13563677,129.0529467,113.26,화장실,,,,,,2014.2.12,15,0,부산포개항의 역사를 기억하고 독도를 수호한 안용복장군의 정신을 기리기위해 만들어진 문화관이다,051-440-4815,부산광역시 동구청 문화체육관광과,2022.6.9,3270000,부산광역시 동구
좌천동굴,관광지,부산광역시 동구 고관로185번길 1,부산광역시 동구 좌천동 567-2,35.13325838,129.0522683,61,전기시설,,,,,,2016.12.15,5,0,일제강점기때 방공호이자 한국전쟁때 피난처였던 역사를 가진 좌천동의 동굴,051-440-4815,부산광역시 동구청 문화체육관광과,2022.6.9,3270000,부산광역시 동구
만화카페,관광지,부산광역시 동구 성북로 31,부산광역시 동구 좌천동 892-8,35.13675143,129.0496096,159.92,화장실+주차장,,,,,,2021.9.14,10,1,"동구 전역의 산복도로, 북항을 열기구 형태의 VR로 체험할 수 있고, 웹툰 도서 읽을 수 있다.",051-440-4815,부산광역시 동구청 문화체육관광과,2022.6.9,3270000,부산광역시 동구
명란브랜드연구소,관광지,부산광역시 동구 영초윗길 22-1,부산광역시 동구 초량동 994-351,35.117117,129.035016,213.18,화장실,,,,,,2021.11.26,15,0,명란을 토대로 한 지역특화 미식관광 브랜딩 추진의 일환으로 지어진 공간이다.,051-440-4814,부산광역시 동구청 문화체육관광과,2022.6.9,3270000,부산광역시 동구
창원단감테마공원,관광지,경상남도 창원시 의창구 동읍 동읍로 359번길 27,,35.29915488,128.6632468,49000,화장실+주차장+파고라+초가동,,,,,,2016.6.23,600,80,"전국 최초로 단감을 소재로 조성한 테마공원으로 아이들이 뛰어놀 수 있는 드넓은 잔디광장에 대형 데크무대와 단감그네, 바람개비 조형물 등이 설치되어 있어 공원을 찾는 방문객들에게 다양한 즐길거리를 선사한다.",055-225-5611,경상남도 창원시청,2022.5.31,5670000,경상남도 창원시
창원의집,관광지,경상남도 창원시 의창구 사림로 16번길 59,,35.24444959,128.6813533,10209,관광안내소+화장실+주차장,,,,,,1985.10.15,150,40,순흥 안씨 안택영의 5대조인 퇴은 두철 선생이 거주하던 집으로 우리 고유의 한옥을 이해하고 조상들의 생활풍습과 지혜를 새롭게 조명할 수 있는 공간이다.,055-719-7800,창원문화재단,2022.5.31,5670000,경상남도 창원시
주남저수지,관광지,경상남도 창원시 의창구 동읍 주남로 101번길 26,,35.30732964,128.6779306,8980000,관리사무소+화장실+주차장+전망대+생태학습관+람사르문화관,,,,,,2002.10.21,200,44,"해마다 찾아오는 수만 마리의 철새들과 텃새들의 서식지로 다양한 수생식물, 수서곤충 등을 만나볼 수 있으며 철새들의 자유로운 곡예비행을 생생하게 관찰할 수 있는 곳이다. 천연기념물 16여종과 환경부 멸종위기 10여종 등 다양한 철새들을 직접 볼 수 있다.",055-225-2798,경상남도 창원시청,2022.5.31,5670000,경상남도 창원시
마금산온천,관광지,경상남도 창원시 의창구 북면 천주로 1167,,35.35464845,128.6094168,528000,화장실+주차장+족욕장+쉼터,,,,,,2015.7.29,4110,910,"마금산온천은 약알칼리성 수질로 평균 수온이 55℃ 이상을 유지하고 있으며, 나트륨, 철, 칼슘, 라듐 등 20여종의 광물질을 포함하고 있다. 운동욕장, 수영장, 노천탕 등 보양온천 시설을 갖추고 치료와 요양, 휴양이 가능하다.",055-225-3641,경상남도 창원시청,2022.5.31,5670000,경상남도 창원시
창원과학체험관,관광지,경상남도 창원시 성산구 충혼로 72번길 16,,35.230268,128.6617774,31565,화장실+주차장+카페테리아,,,,,,2010.1.5,200,106,미래 과학자의 소중한 꿈을 키워 나갈 수 있도록 자라나는 꿈나무들에게 과학을 쉽고 재미있게 즐기면서 배울 수 있는 과학체험관이다.,055-267-2676,경상남도 창원시청,2022.5.31,5670000,경상남도 창원시
마산해양레포츠센터,관광지,경상남도 창원시 마산합포구 제2부두로 56,,35.19796654,128.5759021,1092,강의실+탈의실+화장실,,,,,,2011.2.8,50,0,배를 타고 들어와 해양체험을 즐길 수 있는 이색적인 해양레포츠센터이다. 요일별 체험 프로그램을 진행하고 있으며,055-712-0454,창원시설관리공단,2022.5.31,5670000,경상남도 창원시
웅천도요지전시관,관광지,경상남도 창원시 진해구 두동도요로 198,,35.12738997,128.8155983,33654,화장실+주차장+체험공방,,,,,,2011.11.23,150,30,웅천도요지 출토품을 비롯한 80여점의 유물이 전시되어 있는 전시실과 도자기를 직접 만들어 볼 수 있는 체험공방을 운영하고 있다.,055-225-6859,경상남도 창원시청,2022.5.31,5670000,경상남도 창원시
진해해양레포츠센터,관광지,경상남도 창원시 진해구 천자로 160,,35.14129989,128.6883002,4400,주차장+화장실+탈의실+샤워실+강의실,,,,,,2011.2.8,100,27,"편리한 접근성과 저렴한 이용요금, 스쿨 전용 해상교육장 및 국가대표 출신 강사진 등 우수한 시설을 구비하고 있다. 쉽게 접하기 힘든 크루즈, 딩기요트, 윈드서핑, 카약, 래프팅보트, 바나나보트 등을 운영하고 있다.",055-712-0445,창원시설관리공단,2022.5.31,5670000,경상남도 창원시
최참판댁,관광지,경상남도 하동군 악양면 평사리길 66-7,경상남도 하동군 악양면 평사리 483,35.15590905,127.688408,9529,화장실(4동)+주차장,,,,,,2001.1.4,5000,230,소설 토지의 최참판댁을 복원하여 전통 건축물 등을 관람 할 수 있음,055-880-2381,경상남도 하동군,2022.6.15,5440000,경상남도 하동군
화개장터,관광지,경상남도 하동군 화개면 쌍계로 15,경상남도 하동군 화개면 탑리 726-46,35.18798946,127.6240666,8226,화장실(2동)+주차장,,,,,,2001.9.25,3000,300,영호남 교통의 길목이며 물류이동의 중심지로서 화개장터가 조성됨,055-880-2381,경상남도 하동군,2022.6.15,5440000,경상남도 하동군
삼성궁,관광지,경상남도 하동군 청암면 삼성궁길 2,경상남도 하동군 청암면 묵계리 1738-3,35.23870093,127.7054288,43967,화장실(2동)+주차장,,,,,,2001.12.3,3000,100,"환인, 환웅, 단군을 모신 궁이며 돌탑 등을 관람 할 수 있음",055-880-2381,경상남도 하동군,2022.6.15,5440000,경상남도 하동군
이병주문학관,관광지,경상남도 하동군 북천면 이명골길 14-28,경상남도 하동군 북천면 직전리 231,35.09720238,127.8942256,13535,화장실(2동)+주차장,,,,,,2008.4.24,500,40,문학인 이병주선생의 작품 및 작품활동을 엿볼수 있음,055-880-2361,경상남도 하동군,2022.6.15,5440000,경상남도 하동군
하동레일파크,관광지,경상남도 하동군 북천면 경서대로 2446-6,경상남도 하동군 북천면 직전리 1477-2,35.11333681,127.8929765,13000,화장실(1동)+주차장,,레일바이크,,,,2017.1.1,300,30,"1968년 2월 7일 보통역으로 영업을 개시, 2017년 현재는 하동레일파크가 오픈하고 레일바이크 매표소로 이용되고 있다. 주변 행사로는 5월에는 북천 꽃 양귀비 축제가 열리며, 가을이면 역 주변에 코스모스와 메밀꽃이 만발해 7월 부터 코스모스 메밀꽃 축제를 개최한다.",055-880-2371,경상남도 하동군,2022.6.15,5440000,경상남도 하동군
지리산역사관,관광지,경상남도 하동군 화개면 화개로 1438,경상남도 하동군 화개면 대성리 1389,35.2896912,127.646527,4311,화장실(1동)+주차장,,,,,,2002.6.3,100,15,지리산을 안고 살아온 우리조상들의 생활상 이해공간 제공,055-880-2821,경상남도 하동군,2022.6.15,5440000,경상남도 하동군
하동알프스레포츠,관광지,경상남도 하동군 금남면 경충로 493-9,경상남도 하동군 금남면 중평리 763,34.98260917,127.894714,10000,화장실(1동)+주차장,,짚와이어,,,,2017.7.21,150,133,"금오산 정상 해발 849m에서 경사도 27, 최대 시속 120km/h로, 마치 하늘에서 떨어져 내리는 듯한 짜릿함과 금오산, 다도해의 아름다운 정경을 함께 만끽하는 아시아 최장 3.42km의 활강체험 레포츠이다",055-880-2371,경상남도 하동군,2022.6.15,5440000,경상남도 하동군
하동 플라이웨이 케이블카,관광지,경상남도 하동군 금남면 경충로 461-7,경상남도 하동군 금남면 중평리 772,34.98083847,127.8952769,10000,화장실(3동)+주차장,,케이블카,,,,2022.4.22,2000,53,"총연장 2,556m의 선로와 40대의 캐빈으로 해발 849m 금오산 정상까지 운행하는 하동 플라이웨이 케이블카는 하루 최대 9,800명이 탑승할 수 있으며, 한려해상국립공원의 다도해와 금오산 절경을 동시에 조망할 수 있다.",055-880-2371,경상남도 하동군,2022.6.15,5440000,경상남도 하동군
서창한옥문화관,관광지,광주광역시 서구 눌재로 420,광주광역시 서구 세하동 559-1,35.11523537,126.8300424,1054.2,화장실+주차장+전기시설+통신시설+상하수도 시설,,,,,,1999.10.2,26,14,"서창한옥문화관은 방문객들에게 전통문화의 우수성과 아름다움을 안내하는 역할을 하면서 동시에 우리나라의 전통가옥인 한옥에 대한 의미를 알리는 곳으로 연중 전통문화강좌, 민속놀이, 예절학당, 한옥스테이 등 다채로운 프로그램을 운영하고 있다. 인근의 관광지로는 서구8경 중 3경인 만귀정, 용두동지석묘, 들녘낙조가 있어 한옥의 운치와 볼거리를 더한다",062-373-1365,서창한옥문화관,2022.6.17,3600000,광주광역시 서구
유니온파크,관광지,경기도 하남시 미사대로 710,경기도 하남시 신장동 27,37.54654783,127.2205032,79057,도로+주차장+관리사무소+화장실,,다목적 체육관+테니스장+족구장+농구장+체육시설+어린이 물놀이시설,유니온타워+야외무대,,,2015.6.1,500,237,"기존의 노후화 된 소각장, 재활용선별장, 음식물처리장, 중계펌프장 등의 시설 개선과 미사지구와 같은 택지개발사업 등으로 환경기초시설 확충이 요구됨에 따라 국내최초로 지하에 폐기물처리시설과 하수처리시설을 함께 설치한 신개념 환경기초시설이다. 지하에는 소각처리시설, 재활용선별시설, 음식물자원화시설, 하수처리시설 등이 설치되어 있고, 지상에는 잔디광장, 어린이물놀이시설, 다목적체육관, 야외체육시설 등 다양한 주민친화시설이 있는 하남유니온파크와 한강·검단산 등 하남의 아름다운 경관을 한눈에 조망할 수 있는 하남유니온타워(105m)가 설치되어있다.",031-790-6255,경기도 하남시청 문화체육과,2022.5.27,4040000,경기도 하남시
광주향교,관광지,경기도 하남시 대성로 126-13,경기도 하남시 교산동 227-3,37.52207622,127.1984175,7127,공중화장실,,,,,,1983.9.19,100,45,"고려, 조선시대의 교육기관으로 유학을 가르치고 인재를 양성하던 곳",031-790-6145,경기도 하남시청 문화체육과,2022.5.27,4040000,경기도 하남시
이성산성,관광지,,경기도 하남시 춘궁동 산 36,37.52530687,127.1847777,128891,주차장+화장실+공원,,,,,,2000.9.16,3000,35,6세기 중반경에 신라가 쌓은 것으로 추정되는 신라시대 산성,031-790-6145,경기도 하남시청 문화체육과,2022.5.27,4040000,경기도 하남시
미사경정공원,관광지,경기도 하남시 미사대로 505,,37.55345204,127.2132128,1329933,조정호수+축구장+족구장+매점+자전거대여 등,,"조정호수, 축구장, 족구장, 매점, 자전거대여 등",,,,1980.1.1,10000,3500,"86아시안게임 및 88 서울 올림픽 당시 조정, 카누경기를 위해 만들어진 공원으로 조정호수를 중심으로 축구장, 족구장 등 스포츠시설을 비롯하여 매점, 자전거 대여 등 편의시설과 놀이시설을 갖춘 시민들의 여가선용 장소임",031-790-8883,한국체육산업개발주식회사,2022.5.27,4040000,경기도 하남시
세계무술공원,관광지,충청북도 충주시 남한강로 24,충청북도 충주시 금릉동 601,36.98782919,127.9055691,616968,종합안내소+주차장+도로+야외화장실,,돌미로원+라바랜드+어린이놀이시설,세계무술박물관+야외공연장,카페테리아,,1989.8.22,1436,718,무술의 메카 충주를 대내외에 알리고 충주호 권역의 관광거점 기능을 담당하는 테마관광지 조성,043-850-6751,충청북도 충주시청,2022.5.31,4390000,충청북도 충주시
충주호체험,관광지,충청북도 충주시 중앙탑면 중앙탑길 150,충청북도 충주시 중앙탑면 탑평리 545-1,37.02308256,127.8619229,223134,주차장+도로+화장실,,그랜드스탠드+마리나센터+중앙탑공원,야영장+풍류문화관+충주박물관,,,2004.8.13,1100,285,역사 문화와 수변공간이 어우러지는 체험관광지 조성 / 수변의 위락시설과 생태환경의 조화로 체험가능한 수변 휴식 학습공간 조성 /수상레저활성화를 위한 국제수변레포츠단지 조성,043-850-6731,충청북도 충주시청,2022.5.31,4390000,충청북도 충주시
능암온천,관광지,충청북도 충주시 앙성면 새바지길 37,충청북도 충주시 앙성면 능암리 14-1,37.09370046,127.802172,199210,도로,,,,,,1989.12.14,280,100,중원 유적과 충주호반 관광 등 주변 관광자원과 중부권 유일의 탄산온천 자원을 연계한 종합 온천휴양 관광지 조성,043-850-6742,충청북도 충주시청,2022.5.31,4390000,충청북도 충주시
충온온천,관광지,충청북도 충주시 앙성면 산전장수1길 103,충청북도 충주시 앙성면 돈산리 13-1,37.10173095,127.7962316,224825,도로,콘도미니엄,,,,,1989.12.14,720,165,중원 유적과 충주호반 관광 등 주변 관광자원과 중부권 유일의 탄산온천 자원을 연계한 종합 온천휴양 관광지 조성,043-850-6742,충청북도 충주시청,2022.5.31,4390000,충청북도 충주시
맥문동숲길,관광지,,광주광역시 북구 문흥동 1012,35.18561007,126.9216152,7274,화장실+주차장,,종합체육시설,,,,2017.11.22,1000,30,산책하며 꽃구경을 할 수 있음,062-971-6467,광주광역시 북구청,2022.1.1,6290000,광주광역시
평택호관광단지,관광단지,경기도 평택시 현덕면 평택호길 48,경기도 평택시 현덕면 권관리 551-3,36.9148246,126.912951,663115,관리사무소+화장실(6동)+주차장(5개소) 등,관광호텔 등,수변데크+공원+바닥분수+벽천폭포 등,한국소리터+평택호예술관+지영희국악관 등,식당+카페 등　,관리사무소,1977.3.31,100000,724,문화와 예술이 살아숨쉬는 친환경 문화관광단지,031-8024-8687,경기도 평택시청,2022.5.31,3910000,경기도 평택시
산정호수,관광지,경기도 포천시 영북면 산정호수로411번길 5 일원,경기도 포천시 영북면 산정리 451-3일원,38.065669,127.315722,644500,관리사무실+화장실+주차장,,,,,,1977.3.30,20000,500,백운산에서 흘러내린 맑은 물이 계곡을 이룬곳으로 경관이 수려함,031-538-3363,경기도 포천시청 관광사업과,2022.5.23,5600000,경기도 포천시
백운계곡,관광지,경기도 포천시 이동면 포화로 236-24 일원,경기도 포천시 이동면 도평리 35 일원,38.072165,127.409889,148000,관리사무실+화장실+주차장,,,,,,1987.9.4,10000,100,"명성산 밑에 위치한 호수로 경관이 둘레길이 잘 조성되어 있고, 가을 억새로 장관을 이룸",031-538-3363,경기도 포천시청 관광사업과,2022.5.23,5600000,경기도 포천시
김해가야테마파크,관광지,경상남도 김해시 가야테마길 161,경상남도 김해시 어방동 986,35.25163508,128.8937494,165078,일반음식점+화장실+공연장+주차장,카라반 캠핑장,가야무사어드벤처+익사이팅 사이클+익사이팅 타워,철광산공연장,,,2015.5.21,5000,281,"가야의 역사를 놀이, 체험, 전시를 통해 보고 듣고 느낄 수 있는 오감 체험형 테마파크",055-330-3901,경상남도 김해시청,2022.6.7,5350000,경상남도 김해시
김해낙동강레일파크,관광지,경상남도 김해시 생림면 마사로473번길 41,경상남도 김해시 생림면 마사리 654-4,35.37177644,128.8208387,313.87,전망대+열차카페+주차장+화장실,없음,낙동강레일바이크,와인동굴+철교전망대,열차카페,,2016.4.22,1000,210,"밀양시 삼랑진역과 광주시 광주송정역을 잇는 경전선으로 레일바이크, 와인동굴, 열차카페, 철교 전망대를 조성",055-330-3901,경상남도 김해시청,2022.6.7,5350000,경상남도 김해시
가야랜드,관광지,경상남도 김해시 인제로 368(삼방동),경상남도 김해시 삼방동 1391-2,35.25817158,128.9024348,1352.91,음식점+화장실+주차장+의무실,카라반+글램핑+오토캠핑장,14종의 유기기구,,,,1991.10.5,1000,398,가야테마파크 건너편에 자리한 어드벤처 놀이동산,055-330-3241,경상남도 김해시청,2022.6.7,5350000,경상남도 김해시
김해천문대,관광지,경상남도 김해시 가야테마길 254(어방동),경상남도 김해시 어방동 산2-80,35.25306424,128.887298,6600,사무실+관측실+휴게실+화장실+주차장,없음,,전시동+관측동,,,2002.2.1,500,13,밀레니엄 기념사업의 일환으로 2002년 2월 1일 개관한 영남지역 유일의 시민 천문대,055-330-3901,경상남도 김해시청,2022.6.7,5350000,경상남도 김해시
롯데워터파크,관광지,경상남도 김해시 장유로 555(신문동),경상남도 김해시 신문동 1417,35.17891121,128.8285605,122397.27,음식점+화장실+주차장+의무실,없음,28종의 유기기구,,,,2014.5.1,20000,732,남태평양 폴리네시아를 콘셉트로 2만여 명을 동시에 수용할 수 있는 국내 최대 규모의 워터파크,055-330-3241,경상남도 김해시청,2022.6.7,5350000,경상남도 김해시
클레이아크김해미술관,관광지,경상남도 김해시 진례면 진례로 275-51,경상남도 김해시 진례면 송정리 358,35.25086479,128.7447968,41952,전시관+체험관+커피숍+도자점+화장실+주차장,없음,,돔하우스+큐빅하우스+체험관,,,2006.3.24,500,203,세계 최초의 건축도자 전문 미술관,055-330-3211,경상남도 김해시청,2022.6.7,5350000,경상남도 김해시
김해한옥체험관,관광지,경상남도 김해시 가락로93번길 40(봉황동),경상남도 김해시 봉황동 425-13,35.23436297,128.8766847,4132,음식점+화장실+숙박시설,13개 객실,,,,,2010.11.22,30,10,소박한 전통의 멋과 편리한 현대적인 편의시설을 두루 갖춘 한옥 체험관,055-330-3211,경상남도 김해시청,2022.6.7,5350000,경상남도 김해시
노무현대통령생가,관광지,경상남도 김해시 진영읍 봉하로111번길 16,경상남도 김해시 진영읍 본산리 36,35.31448783,128.7701595,305,화장실+주차장+카페테리아,없음,,,,,2009.9.1,5000,240,"故 노무현 대통령이 1946년 9월 1일 태어나 8살까지 살았던 집, 전통적인 초가집 형태로 본채에 방 2칸과 부엌, 아래채에 헛간과 옛날식 화장실이 있다",055-330-3901,경상남도 김해시청,2022.6.7,5350000,경상남도 김해시
수로왕릉,관광지,경상남도 김해시 가락로93번길 26(서상동),경상남도 김해시 서상동 312,35.23487875,128.8772054,49488,화장실+주차장+안내소,없음,,,,,1963.1.21,5000,38,가락국의 시조인 김수로왕의 릉으로 김해의 상징적인 문화유적이다,055-330-7313,경상남도 김해시청,2022.6.7,5350000,경상남도 김해시
부경동물원,관광지,경상남도 김해시 유하로226번길 70,경상남도 김해시 유하동 88,35.2203238,128.8197957,250,음식점+화장실+주차장,없음,,,,,2013.9.27,500,30,다양한 동물들을 보고 만질 수 있는 동물원,055-330-3241,경상남도 김해시청,2022.6.7,5350000,경상남도 김해시
해인사,관광지,경상남도 합천군 가야면 해인사길 122,경상남도 합천군 가야면 치인리 10,35.801504,128.0976255,84227,관리사무소,,,,,,2020.7.7,5000,500,합천 대표 관광지이자 한국관광공사가 선정한 한국관광100선에 4회 연속 선정된 역사 그대로의 유산,055-934-3001,경상남도 합천군청,2022.6.2,5480000,경상남도 합천군
대장경테마파크,관광지,경상남도 합천군 가야면 가야산로 1160,경상남도 합천군 가야면 야천리 943,35.76749785,128.1365362,86402,관리사무소,,,,,,2020.7.7,5000,500,해인사 팔만대장경을 비롯한 각종 기록의 문화를 총집합 해놓은 복합테마파크,055-930-4696,경상남도 합천군청,2022.6.2,5480000,경상남도 합천군
오도산 자연휴양림,관광지,경상남도 합천군 봉산면 오도산휴양로 398,경상남도 합천군 봉산면 압곡리 산150,35.67233319,128.0553007,506854,치유의 숲,,,,,,2020.7.7,200,50,웰니스 관광지로 선정된 대표 힐링 관광지,055-930-3733,경상남도 합천군청,2022.6.2,5480000,경상남도 합천군
합천박물관,관광지,경상남도 합천군 쌍책면 황강옥전로 1558,경상남도 합천군 쌍책면 성산리 504,35.58042271,128.2829423,10627,관리사무소,,,,,,2020.7.7,184,77,합천의 살아숨쉬는 역사와 문화가 담긴 관광지,055-930-4882,경상남도 합천군청,2022.6.2,5480000,경상남도 합천군
황매산군립공원,관광지,경상남도 합천군 가회면 황매산공원길 4,경상남도 합천군 가회면 둔내리 1319,35.48184913,128.0037495,2600000,주차장,,,,,,2020.7.7,20000,1200,사계절 색이 바뀌는 도화지로 풍경이 일품인 대표관광지,055-930-4753,경상남도 합천군청,2022.6.2,5480000,경상남도 합천군
영상테마파크&청와대세트장,관광지,경상남도 합천군 용주면 합천호수로 757,경상남도 합천군 용주면 가호리 418,35.54877253,128.0728984,75734,관리사무소,,,,,,2020.7.7,10000,500,"국내 최대 영화, 드라마세트장으로 많은 프로그램이 촬영한 장소",055-930-4693,경상남도 합천군청,2022.6.2,5480000,경상남도 합천군
합천댐 물문화관,관광지,경상남도 합천군 대병면 합천호수로 197,경상남도 합천군 대병면 회양리 1603-1,35.531585,128.0295197,756,주차장,,,,,,2020.7.7,150,30,합천댐을 지키며 수려한 경관을 자랑하는 곳,055-930-5205,경상남도 합천군청,2022.6.2,5480000,경상남도 합천군
황계폭포,관광지,경상남도 합천군 용주면 황계2길 30,경상남도 합천군 용주면 황계리 산156,35.51135706,128.071173,11804,화장실,,,,,,2020.7.7,200,40,떨어지는 폭포소리와 그 풍경이 예술인 자연의 신비,055-930-4663,경상남도 합천군청,2022.6.2,5480000,경상남도 합천군
정양레포츠공원,관광지,경상남도 합천군 대양면 동부로 39-13,경상남도 합천군 대양면 정양리 101-18,35.55690191,128.1668052,10708,오토캠핑장,,,,,,2020.7.7,3000,150,남녀노소 즐길거리가 다양한 여름 대표 휴가지,055-930-4663,경상남도 합천군청,2022.6.2,5480000,경상남도 합천군
정양늪생태공원,관광지,경상남도 합천군 대양면 대야로 730,경상남도 합천군 대양면 정양리 146,35.55322772,128.162786,124024,화장실,,,,,,2020.7.7,3000,30,자연을 직접 느끼고 경험할 수 있는 생태관광지,055-930-3296,경상남도 합천군청,2022.6.2,5480000,경상남도 합천군
해인사 소리길,관광지,경상남도 합천군 가야면 가야산로 1160,경상남도 합천군 가야면 구원리 산9-5,35.76749785,128.1365362,930365,화장실,,,,,,2020.7.7,5000,200,"트래킹코스로 사랑받고, 다양한 꽃길을 보유한 소리길",055-930-8000,경상남도 합천군청,2022.6.2,5480000,경상남도 합천군
용문산 관광지,관광지,경기도 양평군 용문면 용문산로641,경기도 양평군 용문면 신점리 515-2,37.54529617,127.583066,382233,관리사무소+관광안내소+ 주차장+ 공중화장실,콘도+ 펜션,청춘뮤지엄,야영장+ 친환경농업박물관,야외공연장,,1971.5.20,5000,807,관광지를 품에 안고 있는 용문산의 웅장한 산세와 기암괴석이 만들어 낸 절경은 금강산을 방불케 한다.,031-770-2491,경기도 양평군청,2022.6.2,4170000,경기도 양평군
두물머리,관광지,경기도 양평군 양서면 두물머리길 145,경기도 양평군 양서면 양수리 697,37.53362262,127.3174715,400000,관리사무소+주차장+ 공중화장실,,두물머리생태학교,,,,1974.5.24,5000,567,물안개와 일출+ 황포돛배 그리고 400년이 넘은 느티나무가 어우러진 한국관광 100선에 선정된 곳,031-770-2568,경기도 양평군청,2022.6.2,4170000,경기도 양평군
세미원,관광지,경기도 양평군 양서면 양수로 93,경기도 양평군 양서면 용담리 428-8,37.54093866,127.3239608,127085,관리사무소+주차장+ 공중화장실,,,연꽃박물관,,,2019.9.17,3000,567,경기도 제1호 지방정원,031-770-2568,경기도 양평군청,2022.6.2,4170000,경기도 양평군
쉬자파크,관광지,경기도 양평군 양평읍 쉬자파크길 193,경기도 양평군 양평읍 백안리 산45-2,37.51122354,127.5331978,186504,관리사무소+주차장+ 공중화장실,펜션,암벽등반+ 놀이터,체험관+ 치유센터,,,2018.5.16,3000,85,쉼을 주는 공원으로 맑은공기+ 숙박+ 치유+ 체험과 교육이 함께하는 전국 최초 산림문화 휴양단지,031-770-2417,경기도 양평군청,2022.6.2,4170000,경기도 양평군
용대관광지,관광지,강원도 인제군 북면 십이선녀탕길 16,강원도 인제군 북면 용대리 1795,38.18568475,128.3061965,289754,화장실+주차장,펜션+야영장,다목적운동장+물놀이장,조경휴게지+산림욕장,음식점,,1996.6.1,1500,300,"설악산국립공원의 내설악지역에 위치하고 있으며 십이선녀탕, 만해마을, 백담사, 황태덕장, 하천 등이 관광지 주변이 있음",033-460-2083,강원도 인제군청,2022.6.7,4330000,강원도 인제군
방동관광지,관광지,강원도 인제군 기린면 방동약수로 89-59,강원도 인제군 기린면 방동리 34-5,37.94387136,128.3962628,60900,화장실+주차장,펜션+야영장,다목적운동장+물놀이장,조경휴게지+산림욕장,음식점,,2008.6.1,1000,250,기린면 방동지역에 위치하고 있음,033-460-2083,강원도 인제군청,2022.6.7,4330000,강원도 인제군
오토테마파크,관광지,강원도 인제군 기린면 상하답로 130,강원도 인제군 기린면 북리 516,38.00266835,128.2953846,1067964.6,화장실+주차장,호텔+콘도,"모터스포츠 체험관, 자동차경주장",,편의점+음식점,,2014.6.1,1800,900,"우리나라 최초의 자동차테마파크이며, 국제규격의 자동차경주와 4성급 호텔과 콘도미니엄이 설치되어 있음",033-460-2385,강원도 인제군청,2022.6.7,4330000,강원도 인제군
성류굴 관광지,관광지,경상북도 울진군 근남면 성류굴로 202,경상북도 울진군 근남면 노음리 850-12,36.95884825,129.3794409,56000,도로+주차장+광장+화장실+오수처리장,펜션하우스,,동굴생태전시관+야외공연장,,,1981.1.18,3300,91,성류굴 주변 관광지,054-789-5402,경상북도 울진군청,2022.5.25,5250000,경상북도 울진군
백암온천 관광지,관광지,경상북도 울진군 온정면 온천로 7,경상북도 울진군 온정면 소태리 1453,36.72132775,129.343467,357132,도로+주차장+정류장+공원+녹지+소하천+온천공+소방시설+국유림관리소+배수지,호텔+콘도미니엄+국민호텔+교육원+여관+펜션,다목적운동장+축구장+잔디썰매장+체력단련장+극기체험장+족구장+서바이벌게임장,회의장+전망대+조경휴게소+자연학습장,,,1987.12.31,15310,501,백암산 온천수를 이용한 온천관광지,054-789-5480,경상북도 울진군청,2022.5.25,5250000,경상북도 울진군
인천도호부청사,관광지,인천광역시 미추홀구 매소홀로 589,인천광역시 미추홀구 문학동 349-2,37.4393787,126.6868134,9103,"관리사무소,화장실,주차장",,,,,,2001.10.14,3000,50,조선시대 행정기관의 하나로 상급기관인 목(牧)과 하급기관인 군(郡) · 현(縣) 사이에서 행정을 담당했던 관청,032-422-3492,인천광역시,2022.5.23,3510500,인천광역시 미추홀구
예당관광지,관광지,충청남도 예산군 응봉면 예당관광로 161,,36.63801252,126.799434,143000,관리사무소+화장실(6동)+주차장,,,,,,1986.5.2,20000,185,"예당호를 배경으로 예당호 출렁다리, 예당호 조각공원, 느린호수길, 캠핑장, 야영장이 조성되어 있어 가족단위 휴양객이 즐길수 있는 관광지",041-339-8282,충청남도 예산군청,2022.5.23,4610000,충청남도 예산군
덕산온천관광단지,관광단지,충청남도 예산군 덕산면 온천단지2로 11,충청남도 예산군 덕산면 신평리 513,36.69075649,126.659328,724544.5,관광안내소+화장실(2동)+주차장,리솜스파캐슬,,,,,1981.9.22,100000,350,"1917년 처음으로 탕을 이용한 온천으로 개장됐으며, 49도씨 이상의 천연중탄산나트륨 온천수로 전국 최고의 온천수로 인정받고 있다.",041-339-7303,충청남도 예산군청,2022.5.23,4610000,충청남도 예산군
임진각관광지,관광지,경기도 파주시 문산읍 임진각로 177,경기도 파주시 문산읍 사목리 494-1,37.88953876,126.7401859,477894,관리사무실+관광안내매표소1층+화장실3동+홍보관1층+상황실2층+오수처리장1층+기반시설(도로+광장+주차장),,유원시설(평화랜드)+관광열차(평화열차),기념비공원6.25납북자기념관망배단망향의노래비평화의 종각철마는달리고싶다아웅산위령탑장단콩전시관,,,1991.1.28,50000,2091,"서울에서 북서쪽으로 약 54km 떨어진 임진각은 6.25 전쟁의 비통한 한이 서려 있는 곳이다. 6,000평 대지 위에 지하 1층, 지상 3층의 임진각은 1972년에 북한 실향민을 위해 세워져 지금은 관광명소로 많이 알려져 있다. 이곳에는 평화와 환경의 중요성을 전달하는 경기평화센터가 있다. 또한, 철마는 달리고 싶다 철도중단점, 북한 실향민을 위한 망배단, 미얀마 아웅산 순국외교사절 위령탑, 한국전쟁의 대표 유산으로서 50여년 만에 개방이 된 자유의 다리와 한반도의 지령을 본딴 통일연못, 평화의 종, 미국군 참전기념비 등이 있는 통일안보 관광지이다. 더불어 남북교류 및 화해협력의 장소로 통일관련행사를 많이 치르고 있다. 판문점처럼 복잡한 허가절차를 필요로 하지 않는 관광지로서 경기도내에서 가장 외국인이 많이 찾는 곳이 되었다. 최근 소규모 어린이 놀이시설을 개발하여 바이킹, 미니열차 등을 이용할수 있다.",031-950-1871,파주도시관광공사,2022.4.29,4060000,경기도 파주시
공릉관광지,관광지,경기도 파주시 조리읍 장곡로 218,경기도 파주시 조리읍 장곡리 420-6,37.7498111,126.8335655,621155,관리사무소+화장실4동+도로+광장+주차장,,눈썰매장+ 수영장유원시설(하니랜드),공릉관광지 캠핑장,,,1977.3.31,3000,350,"공릉 근처에 있다. 보트와 배 등 수상 레저시설을 갖춘 호반 관광지이다. 관광지 안에 들어선 하니랜드에는 10여 종의 놀이시설과 야외수영장, 낚시터,눈썰매장,산책로 등이 갖추어져 있다. 개장시간은 오전 10시부터 오후 6시까지이다.",031-945-2250,㈜성원레저,2022.4.29,4060000,경기도 파주시
장흥관광지,관광지,경기도 양주시 장흥면 권율로 193,경기도 양주시 장흥면 석현리 산 1,37.73281632,126.9492504,390000,관광안내소+화장실+주차장,관광호텔,,캠핑장+미술관,,,1986.12.27,2340,502,"계명산과 송추계곡 등의 우수한 자연경관과 양주시립장욱진미술관, 가나아트파크, 송암스페이스센터 등 풍부한 문화예술체험을 동시에 즐길 수 있음",031-8082-5664,경기도 양주시청,2022.5.10,5590000,경기도 양주시
실안관광지,관광지,경상남도 사천시 노을길 138,경상남도 사천시 실안동 1245-1,34.94398447,128.0399764,256877,숙박시설+상가시설+휴양문화시설+화장실+주차장+전기시설+상하수도시설,호텔+모텔,-,-,-,-,2000.6.26,1000,150,전통 물고기 잡이 죽방렴과 전국에서 빼어난 노을을 관망할 수 있음.,055-831-2731,경상남도 사천시청,2022.5.4,5340000,경상남도 사천시
대광해수욕장,관광지,전라남도 신안군 임자면 대광해수욕장길 179,전라남도 신안군 임자면 광산리 407-24,35.10291276,126.0725117,1500,화장실(6동)+주차장(4개소)+취사장(5동)+관리사업소(1동),,,,,,1990.9.21,10000,1000,넓은 백사장과 주변 섬들의 경관 등 천혜의 자연환경을 지님,061-240-4049,대광개발사업소,2022.5.2,5010000,전라남도 신안군
가우도,관광지,전라남도 강진군 대구면 중저길 31-27,,34.53639075,126.791046,3000,낚시공원1+휴게시설1+식당2+쉼터2,밀물펜션+한옥펜션+노을민박+바닷가펜션+가우도펜션,,낚시공원1,,,2013.1.1,1000,100,곰솔나무 등 태고적 숨결이 가득한 함께해길그리고 바다를 걷는 출렁다리삶의 여유가 묻어나는 섬 가우도에서는 건강함도 함께한다,061-430-3344,전라남도 강진군청,2022.4.28,4920000,전라남도 강진군
영랑생가,관광지,전라남도 강진군 강진읍 영랑생가길 15,,34.6420738,126.7655711,3000,관리사무소,,,,,,2013.1.1,100,50,구수한 남도 사투리로 현대 서정시의 새로운 지평을 열었던 영랑 김윤식 선생의 생가를 원형 그대로 보존한 곳으로 영랑의 시혼과 그 발자취를 엿볼 수 있다.,061-430-3185,전라남도 강진군청,2022.4.28,4920000,전라남도 강진군
다산초당,관광지,전라남도 강진군 도암면 다산초당길 68-35,,34.5807211,126.7449445,3000,관리사무소,,,,,,2013.1.1,100,50,다산초당은 조선 후기 실학 사상을집대성한 다산 정약용 선생이 18년간의 유배기간 중 10여년간 생활하며후학을 양성하고 ’’’’목민심서’’’’를 비롯하여 500여권의 책을 저술했던 조선실학의 산실이다.,061-430-3911,전라남도 강진군청,2022.4.28,4920000,전라남도 강진군
고려청자박물관,관광지,전라남도 강진군 대구면 청자촌길 33,,34.50866203,126.8008374,3000,관리사무소+화장실,,,,,,2013.1.1,1000,100,"고려청자의 체계적인 관리와 연구를 위해1997년 고려청자박물관을 개관,운영하여청자의 연구는 물론 누구나 쉽게 청자를접하고 이해할 수 있도록 하고 있다.",061-430-3755,전라남도 강진군청,2022.4.28,4920000,전라남도 강진군
소래포구,관광지,인천광역시 남동구 포구로 2-9(논현동),,37.3988308,126.7403795,20798,화장실,,,,,,2000.1.1,10000,0,실제 어선이 드나드는 수도권 유일의 재래포구,032-453-2140,인천광역시 남동구청,2021.12.3,3530000,인천광역시 남동구
백련사,관광지,전라남도 강진군 도암면 백련사길 145,,34.58775658,126.747892,3000,관리사무소+화장실,,,,,,2013.1.1,100,50,신라말에 창건되어 1211년 원묘국사요세에 의해 중창된 백련사는 1236년백련결사문을 발표하고 백련결사운동을주창하였으며 고려 8국사와 조선 8대사를배출하여 명찰로 알려지게 되었다,061-432-0837,전라남도 강진군청,2022.4.28,4920000,전라남도 강진군
옥계해변관광지,관광지,강원도 강릉시 옥계면 금진솔밭길 104-29 일원,강원도 강릉시 옥계면 금진리 799-16 일원,37.62739946,129.0476423,215839,화장실+주차장+샤워장,,,한국여성수련원,,,1980.5.28,900,180,옥계해변관광지는 깨끗하고 넓은 백사장과 오래된 송림지역을 갖추어 바라보는 경치가 매우 아름다운 곳임.,033-640-5685,강원도 강릉시청,2022.4.25,4200000,강원도 강릉시
주문진해변관광지,관광지,강원도 강릉시 주문진읍 주문북로 222-30 일원,강원도 강릉시 주문진읍 향호리 8-22 일원,37.91137845,128.8178804,484200,화장실+주차장+샤워장,베네키아호텔,,교직원연수원,,,1984.7.6,1000,250,주문진해변관광지는 주문진읍 향호리에 위치하고 넓은 백사장과 수심이 얕고 바닷물이 맑아 가족 단위 피서지에 적합한 곳임.,033-640-5685,강원도 강릉시청,2022.4.25,4200000,강원도 강릉시
연곡해변관광지,관광지,강원도 강릉시 연곡면 해안로 1282 일원,강원도 강릉시 연곡면 동덕리 99-13 일원,37.858992,128.851409,169603,관리사무소+화장실+주차장+샤워장,"솔향기캠핑장(캠핑존 127면, 카라반존 8면, 자동차 캠핑존 12면)",,,,,1986.3.12,600,120,연곡해변관광지,033-640-5685,강원도 강릉시청,2022.4.25,4200000,강원도 강릉시
등명해변관광지,관광지,강원도 강릉시 강동면 정동등명길 2 일원,강원도 강릉시 강동면 정동진리 440-41일원,37.70264843,129.0164178,193660,화장실+주차장,"다우리조텔, 민박",레일바이크,정동진시간박물관,,,1997.8.2,600,120,등명해변관광지,033-640-5685,강원도 강릉시청,2022.4.25,4200000,강원도 강릉시
대관령어흘리관광지,관광지,강원도 강릉시 성산면 삼포암길 17 일원,강원도 강릉시 성산면 어흘리 508일원,37.719113,128.793989,163160,화장실+주차장,,,대관령박물관,,,2014.12.26,1000,0,성산면 대관령 어흘리 관광지,033-640-5685,강원도 강릉시청,2022.4.25,4200000,강원도 강릉시
팔봉산관광지,관광지,강원도 홍천군 서면 한치골길 1124,,37.703098,127.695183,386977,관리사무소+화장실+주차장,,풋살장,캠핑장+공연장,향토식당,관리사무실,1980.5.28,1000,150,8개의 암봉과 홍천강이 어우러진 아름다운 명산,033-430-4281,강원도 홍천군청,2022.4.22,4250000,강원도 홍천군
소노벨비발디파크,관광단지,강원도 홍천군 서면 한치골길 262,,37.65233706,127.6873348,7052479.2,관리사무소+화장실+주차장,휴양콘도미니엄,골프장+스키장+승마장,오션월드,관광공연장+식당 등,직원전용 숙소,2008.11.21,20000,2000,"휴양과 레저, 골프 및 스키 등 국내 최대규모의 관광휴양단지",033-430-2454,강원도 홍천군청,2022.4.22,4250000,강원도 홍천군
수동관광지,관광지,경기도 남양주시 수동면 비룡로 1635,경기도 남양주시 수동면 내방리 254,37.75797919,127.2753596,225000,몽골문화촌,,,,,,1983.10.11,100,119,몽골문화촌,031-559-8018,경기도 남양주시청,2022.3.1,3990000,경기도 남양주시
송정관광지,관광지,경상남도 남해군 미조면 미송로 483,경상남도 남해군 미조면 송정리 1129,34.7231451,128.0249667,605283,샤워탈의장/화장실(2동)+관리사무실(2동)+오수처리장+주차장,,,,,,1994.10.21,10000,387,"해수욕장이 넓게 분포되어 있으며, 해수욕장을 조금만 벗어나면 몽돌과 기암괴석이 뒤섞인 단애의 해안을 구경할 수 있다.",055-860-8615,경상남도 남해군,2022.3.29,5430000,경상남도 남해군
영도관광안내센터,관광지,부산광역시 영도구 봉래나루로 79,부산광역시 영도구 봉래동1가 1,35.09454127,129.0387847,305.18,화장실+주차장,,,,,,2016.9.2,300,2,부산의 새로운 관광명소로 각광받고있는 영도대교의 도개모습을 감상하고 영도관광에 필요한 종합서비스를 제공받을 수 있다.,051-419-4048,부산광역시 영도구청 문화관광과,2022.3.18,3280000,부산광역시 영도구
허준근린공원,관광지,서울특별시 강서구 허준로5길 42,,37.56759867,126.8537291,29843,화장실+주차장,,,,,,1993.10.31,20000,10,공원주위에는 서울 기념물 제11호인 허가바위가 있고 공원내에는 전설이 깃든 광주바위와 허준 선생이 앉아서 병자를 진료하는 인자한 모습의 동상 그리고 호수 정자 어린이 놀이 시설이 있으며 인근 주민들의 휴식공간으로 이용되고 있다.,02-2600-4185,서울특별시 강서구청,2022.3.16,3150000,서울특별시 강서구
양천향교,관광지,서울특별시 강서구 양천로47나길 53,,37.572863,126.839905,1782,화장실,,,,,,1990.6.18,100,0,조선 태종 11년(1411년)에 만들어졌으며 현재 서울에 남아있는 유일한 향교이다. 이름 때문에 양천구에 위치한 것으로 오해할 수 있으나 실제로는 강서구 가양동에 위치하고 있다. 인근에 위치한 서울 지하철 9호선 양천향교역 역시 이 곳의 이름을 따서 제정되었다.,02-2659-0076,서울특별시 향교재단,2022.3.16,3150000,서울특별시 강서구
약사사,관광지,서울특별시 강서구 금낭화로17길 261,,37.58312625,126.8050072,678,화장실+주차장,,,,,,1980.6.11,12000,50,서울 강서구 관내 전통사찰 중 제1의 위상을 지닌 대한불교조계종 직할교구 사찰,02-2664-2550,약사사,2022.3.16,3150000,서울특별시 강서구
양천고성지,관광지,서울특별시 강서구 양천로47나길 52-54,,37.57425363,126.8413319,29752,전기시설,,,,,,1992.3.10,1000,0,양천고성지는 양천향교의 뒷산인 궁산에 있는 옛 성터. 백제 22대 문주왕이 웅진으로 천도(475년)하기 전 강 건너 고구려 침입에 대비하기 위해 쌓은 성으로 조선 성종(1470년)까지 요새가 있었던 것으로 짐작된다.,02-2600-6456,서울특별시 강서구청,2022.3.16,3150000,서울특별시 강서구
궁산땅굴역사전시관,관광지,서울특별시 강서구 양천로49길 106,,37.57266746,126.8383649,758.11,전기시설,,,,,,2018.5.11,15,0,"궁산 땅굴은 태평양전쟁 말기 일제 강점기에 굴착된 곳으로, 무기나 탄약 등, 군수물 자를 저장하거나 김포 비행장을 감시하고, 공습 때에는 부대 본부로 사용하기 위한 곳이었다고 전해진다.",02-2600-6552,서울특별시 강서구청,2022.3.16,3150000,서울특별시 강서구
허가바위,관광지,서울특별시 강서구 허준로5길 15,,37.56983571,126.8500301,7456,전기시설,,,,,,1991.12.24,20,0,옛날 석기 시대의 사람들이 이곳에서 살았으리라 짐작되는 혈거동굴로서 연구 가치가 매우 높다. 허준은 허가바위에서 『동의보감』을 완성했다고 한다.,02-2600-6080,서울특별시 강서구청,2022.3.16,3150000,서울특별시 강서구
성기동,관광지,전라남도 영암군 군서면 왕인로 440,전라남도 영암군 군서면 동구림리 산18,34.75653201,126.6291224,220000,비지터센터+화장실(9동)+주차장,,,전시관 2개소,,,2008.8.23,10000,860,"성기동은 왕인박사의 탄생지로 추정되는 곳으로 왕인박사유적지와 함께 탄생지, 문산재, 양사재, 상대포, 회사정 등 왕인박사 관련 관광자원이 분포되어 있다. 매년 4월이면 왕인문화축제가 열리고 있어 다양한 체험 및 관람을 즐길 수 있다",061-470-6653,전라남도 영암군청,2022.2.8,4940000,전라남도 영암군
마한문화,관광지,전라남도 영암군 시종면 남해당로 65,전라남도 영암군 시종면 옥야리 956,34.89539241,126.5859196,182000,비지터센터+화장실(3동)+주차장,,야구장,"고분탐사관,전망대",,,2003.7.28,650,85,영산강 유역에 분포되어 있는 고대 옹관 고분을 이해함으로써 영산강 유역의 독자성이 가득한 고대사를 조명하기 위해 조성,061-470-6672,전라남도 영암군청,2022.2.8,4940000,전라남도 영암군
영산호관광지,관광지,전라남도 영암군 삼호읍 녹색로 653-11,전라남도 영암군 삼호읍 나불리 일원,34.776135,126.4577774,669217,관리사무소+화장실(8동)+주차장,한옥호텔+관광호텔,승마장,농업박물관+쌀문화테마공원,,,1983.10.11,100000,375,1981년 영산강 하굿둑이 준공되면서 만들어진 인공호수인 영산호를 중심으로 조성된 휴양지이다.,061-462-2798,전라남도청,2022.2.8,4940000,전라남도 영암군
한려수도조망케이블카,관광지,경상남도 통영시 발개로 205,경상남도 통영시 도남동 349-1,34.82665041,128.4251243,34106,화장실+카페+음식점+휴게공간,,,,,,2008.4.18,10000,206,"통영 미륵산에 설치된 한려수도 조망 케이블카는 한국에서 유일한 2선(bi-cable) 자동순환식 곤돌라 방식으로 스위스의 최신기술에 의해 설치되었으며, 그 길이도 1975m로 국내 일반관광객용 케이블카 중에서는 가장 길다. 특히, 그렇게 긴 길이에도 불구하고 친환경적인 설계에 의해 중간지주는 1개만 설치하여, 환경보호는 물론 탑승객에게 아주 편안한 승차감을 제공한다. 또한, 8인승 곤돌라 48대가 연속적으로 탑승객을 운송함으로써 지체 없이 탑승이 가능하며, 가까운 사람끼리 오붓하게 아름다운 한려수도의 경치를 감상할 수 있다.",055-649-3804,경상남도 통영시 통영관광개발공사,2022.2.7,5330000,경상남도 통영시
한산도 제승당,관광지,경상남도 통영시 한산면 한산일주로 70,경상남도 통영시 한산면 두억리 산39,34.79264032,128.4759648,524625,화장실+휴게소,,,,,,1976.1.1,1600,0,"선조26년(1593년) 이순신장군이 삼도수군통제사를 제수받고 이 곳에 진영을 설치했고, 1976년 지금의 제승당과 충무사, 한산정, 수루 등을 새로 짓고 경내를 정화하여 오늘에 이름.",055-254-4483,경상남도청,2022.2.7,5330000,경상남도 통영시
통영루지,관광지,경상남도 통영시 발개로 178,경상남도 통영시 도남동 319-3,34.82440908,128.4241617,164000,화장실,,,,,,2017.2.9,2500,350,스카이라인 루지는 탑승자들이 1.5km의 트랙 위를 자유롭게 조정하며 내려올 수 있도록 특별제작된 카트로 연령에 관계없이 누구나 쉽게 배우고 즐길 수 있는 아웃도어 기구.,055-650-0621,경상남도 통영시청,2022.2.7,5330000,경상남도 통영시
박경리기념관,관광지,경상남도 통영시 산양읍 산양중앙로 173,경상남도 통영시 산양읍 신전리 1429-9,34.802301,128.4035792,4465,화장실,,,,세미나실+회의실,,2010.5.5,400,23,통영이 낳은 대 소설가 박경리 선생님의 문학적 업적을 기리고 독창적이고 차별화된 문화콘텐츠를 육성하기 위해 기념관 건립함.,055-650-2541,경상남도 통영시청,2022.2.7,5330000,경상남도 통영시
해저터널,관광지,,경상남도 통영시 당동 1-3,34.83609021,128.411698,2415,관광안내소,,,,,,2005.9.14,200,0,동양 최초의 바다 밑 터널,055-650-0514,경상남도 통영시청,2022.2.7,5330000,경상남도 통영시
장사도해상공원,관광지,경상남도 통영시 한산면 장사도길 55,경상남도 통영시 한산면 매죽리 산4-1,34.71373747,128.5588706,390131,화장실+카페+음식점+휴게공간,,,공원,,,2012.1.1,2500,0,바다위의 공원으로 배를 타고 입장.,055-650-0514,경상남도 통영시청,2022.2.7,5330000,경상남도 통영시
통영시립박물관,관광지,경상남도 통영시 중앙로 65,경상남도 통영시 도천동 28,34.84075153,128.4167887,4989,화장실+카페+음식점+휴게공간,,,전시실,세미나실+영화관람실,,2013.8.23,500,32,"통영시립박물관은 통여의 소중한 문화자산을 잘 보존, 전시하여 후대에까지 전하려고 합니다.",055-650-4515,경상남도 통영시청,2022.2.7,5330000,경상남도 통영시
삼도수군통제영,관광지,경상남도 통영시 세병로 27,경상남도 통영시 문화동 62,34.84715495,128.423489,46683,화장실,,,,,,1998.2.20,800,140,"이충무공의 숨결이 살아있는 통제영은 삼도수군통제영의 약칭으로 삼도수군통제사가 경상,전라,충청 3도의 수군을 지휘하던 본영을 말한다. 최초의 통제영은 임진왜란 당시 초대 통제사로 제수된 이순신장군의 한산 진영이였다.",055-645-3805,경상남도 통영시 통영관광개발공사,2022.2.7,5330000,경상남도 통영시
춘천호반(삼악산),관광지,강원도 춘천시 서면 경춘로 1401-25,강원도 춘천시 서면 덕두원리 118-6,37.825714,127.659368,3305373,도로+관리사무소 2동+주차장+화장실 3동+오수처리장+배수지,,,조경휴게지 4,상가 6동,,1969.1.21,1000,202,"춘천시도기념물로 지정된 삼악산은 주봉인 용화봉과 청운봉, 등선봉 3개가 있어 삼악이라 불리게 되었다. 절벽사이로 크고 작은 폭포들이 이어지고, 그중에 등선폭포가 유명하다. 인근에는 금선사, 신흥사, 흥국사, 상원사 등 많은 문화재들이 있다.",033-250-3075,강원도 춘천시청,2022.1.19,4180000,강원도 춘천시
청평사,관광지,강원도 춘천시 북산면 오봉산길 622,강원도 춘천시 북산면 청평리 산210-1,37.983441,127.818301,168209,도로+주차장+하수처리장 1동+관리사무소 2동+매표소 2동+화장실 3동+다목적광장,콘도미니엄 1동+여관 1동+펜션 5동,,야영장+공원+조경휴게지+광장+전망대,상가 9동,,1987.6.15,1000,162,"강원도에서 손에 꼽히는 고즈넉한 절, 청평사가 있으며, 오봉산에서 흘러오는 청평사 계곡이 있다. 계곡의 가운데 쯤에는 아름다운 구송폭포가 자리하고 있다.",033-250-3714,강원도 춘천시청,2022.1.19,4180000,강원도 춘천시
구곡폭포,관광지,강원도 춘천시 남산면 강촌구곡길 254,강원도 춘천시 남산면 강촌리 432,37.797033,127.615852,914206,관리사무소 1동+주차장+공중화장실 4동+주륜장+오수처리장+배수지+도로,,운동시설 1동(미착공),전망휴게소(미착공)+야생화원(미착공)+생태습지+생태연못+야영장 10면+조경휴게지,상가 19동,,1981.2.13,1000,242,"봉화산 근처 아홉구비를 돌아 떨어지는 구곡폭포와 탄성을 자아내는 하늘벽 바위 등 자연경관이 출중한 곳이며, 깔닥재를 넘으면 자연부락인 문배마을까지 볼 수 있다.",033-250-3668,강원도 춘천시청,2022.1.19,4180000,강원도 춘천시
몰운대,관광지,부산광역시 사하구 몰운대1길 14(다대동),부산광역시 사하구 다대동 482-3,35.04638172,128.9680068,0,화장실,,,다대포객사,,,1900.1.1,0,0,"태종대, 해운대와 함께 부산의 3臺 중 하나",051-220-4082,부산광역시 사하구,2022.1.24,3340000,부산광역시 사하구
다대포 꿈의 낙조분수,관광지,부산광역시 사하구 몰운대1길 14(다대동),부산광역시 사하구 다대동 482-3,35.04638172,128.9680068,0,화장실,,,물놀이 체험분수+야간 음악분수 운영,,,1900.1.1,0,0,세계 최대이자 최고의 바닥 음악분수,051-220-5891,부산광역시 사하구,2022.1.24,3340000,부산광역시 사하구
다대포해수욕장,관광지,부산광역시 사하구 몰운대1길 14(다대동),부산광역시 사하구 다대동 1548-1,35.04638172,128.9680068,0,화장실,,갯벌체험+패들보드+서핑보드 (※ 해양스포츠 체험 가능),부산바다축제 등 다양한 문화공연 등,,,1900.1.1,0,0,"백사장 길이 900m, 폭 100m의 얕은 수심으로 가족단위 피서지로 유명",051-220-4161,부산광역시 사하구,2022.1.24,3340000,부산광역시 사하구
낙동강하구아미산전망대,관광지,부산광역시 사하구 다대낙조2길 77(다대동),부산광역시 사하구 다대동 482-4,35.05276243,128.9607468,0,화장실,,,,,,1900.1.1,0,0,"모래섬, 철새, 낙조 등 천혜의 전경을 조망할 수 있는 전망대",051-265-6863,낙동강하구 에코센터,2022.1.24,3340000,부산광역시 사하구
을숙도 생태공원,관광지,부산광역시 사하구 낙동남로1233번길 25(하단동),부산광역시 사하구 하단동 1151-14,35.11008837,128.9449571,0,화장실,,,,,,1900.1.1,0,0,을숙도 상단부로 수생식물이 서식하는 생태의 보고,051-209-2000,낙동강하구 에코센터,2022.1.24,3340000,부산광역시 사하구
을숙도 철새공원,관광지,부산광역시 사하구 낙동남로 1240(하단동),부산광역시 사하구 하단동 1207-2,35.10449092,128.9459791,0,화장실,,,생태체험프로그램 운영,,,1900.1.1,0,0,철새를 보호하는 한편 습지를 비롯한 생태보존 공원,051-209-2000,낙동강하구 에코센터,2022.1.24,3340000,부산광역시 사하구
감천문화마을,관광지,부산광역시 사하구 감내2로 203(감천동),부산광역시 사하구 감천동 1-14,35.09748815,129.0106077,0,화장실,방가방가게스트하우스 등,,도자기+목공예 (※ 각종 체험프로그램 운영),감천문화마을 안내센터,,1900.1.1,0,0,한국전쟁 당시 피난민들이 모여산 계단식 마을로 다양한 예술작품 감상 가능,051-220-5922,부산광역시 사하구,2022.1.24,3340000,부산광역시 사하구
장림포구,관광지,부산광역시 사하구 장림로 93번길 72(장림동),부산광역시 사하구 장림동 1092,35.07915955,128.9513486,0,화장실,,놀이촌,문화촌,맛술촌,해양보호구역 홍보관,1900.1.1,0,0,"배가 드나드는 강의 어귀로 조선시대 군사요충지였으며, 부네치아라 불림",051-220-4502,부산광역시 사하구,2022.1.24,3340000,부산광역시 사하구
꽃보라동산,관광지,,대구광역시 북구 산격동 1500-6,35.889576,128.601059,10000,화장실+벤치+벚꽃길,,,,,,2017.3.14,3000,50,대구광역시 북구 8경사진찍기좋은명소,053-665-4324,대구광역시 북구청,2022.1.20,3450000,대구광역시 북구
운암지수변공원,관광지,,대구광역시 북구 구암동 349,35.932633,128.567671,17962,화장실+데크로드+분수대+생활공원+유아숲체험원,,,,,,2017.3.14,10000,50,대구광역시 북구 8경사진찍기좋은명소,053-665-4324,대구광역시 북구청,2022.1.20,3450000,대구광역시 북구
팔달대교 야경,관광지,,대구광역시 북구 팔달동 524-4,35.895353,128.550766,10000,조명시설,,,,,,2017.3.14,1000,0,대구광역시 북구 8경사진찍기좋은명소,053-665-4324,대구광역시 북구청,2022.1.20,3450000,대구광역시 북구
금호강하중도,관광지,,대구광역시 북구 노곡동 673,35.900092,128.559326,223000,화장실+주차장,,,,,,2017.3.14,50000,2000,대구광역시 북구 8경사진찍기좋은명소,053-665-4324,대구광역시 북구청,2022.1.20,3450000,대구광역시 북구
경북대학교 캠퍼스,관광지,대구광역시 북구 대학로80,대구광역시 북구 산격동 1370-1,35.88909849,128.6143217,1317639,화장실+주차장+휴게시설,,,,,,2017.3.14,50000,5000,대구광역시 북구 8경사진찍기좋은명소,053-665-4324,대구광역시 북구청,2022.1.20,3450000,대구광역시 북구
함지공원,관광지,대구광역시 북구 동암로38길 9,대구광역시 북구 구암동 775-6,35.9424608,128.570482,44385,화장실+주차장+음악공원시설+물놀이시설+휴게시설,,,,,,2017.3.14,10000,100,대구광역시 북구 8경사진찍기좋은명소,053-665-4324,대구광역시 북구청,2022.1.20,3450000,대구광역시 북구
구암서원,관광지,대구광역시 북구 연암공원로17길 20,대구광역시 북구 산격동 산79-1,35.89881592,128.5989989,65000,화장실+주차장+관광안내시설+휴게시설,,,,,,2017.3.14,500,30,대구광역시 북구 8경사진찍기좋은명소,053-665-4324,대구광역시 북구청,2022.1.20,3450000,대구광역시 북구
침산정,관광지,대구광역시 북구 침산남로9길 118,대구광역시 북구 침산동 1168-3,35.897221,128.5848591,291080,화장실+주차장+휴게시설,,,,,,2017.3.14,500,50,대구광역시 북구 8경사진찍기좋은명소,053-665-4324,대구광역시 북구청,2022.1.20,3450000,대구광역시 북구
산토끼노래동산,관광지,경상남도 창녕군 이방면 이방로 623,,35.57772326,128.38358,49910,안내소(매표소)+주차장+화장실,,롤링미끄럼틀+레일썰매장+어린이놀이터,작은동물원+토끼먹이체험장,,,2013.11.15,780,195,"국민 동요 ‘산토끼’의 유래지역인 창녕군 이방면에 어른들에게는 어린 시절의 추억을 떠올리고, 어린이들에게는 생생한 체험학습의 장을 마련하고자 조성된 어린이 및 가족단위의 생태체험 여행관광지이다",055-530-1534,경상남도 창녕군청,2022.1.12,5410000,경상남도 창녕군
광주광역시공원&광주광역시향교,관광지,광주광역시 남구 중앙로 107번길 15,,35.14707323,126.9100957,28800,화장실+주차장,,종합체육시설,,,,1985.2.25,500,50,선비들의 정신이 살아 있음을 느낄 수 있음,062-672-0660,광주광역시공원관리사무소,2022.1.1,6290000,광주광역시
포충사,관광지,광주광역시 남구 포충로 767,,35.08945325,126.8484326,365,화장실+주차장,,,,,,1974.5.22,300,50,광주광역시 남구 원산동에 있는 고경명 등 임진왜란 때의 의병 5명의 충절을 기리는 사당,062-374-4212,광주광역시 남구청,2022.1.1,6290000,광주광역시
광주광역시어린이교통공원,관광지,광주광역시 북구 임방울대로 877,광주광역시 북구 오룡동 1113,35.21837394,126.8544969,24000,화장실+주차장+관광안내소,,,,,,1998.4.30,150,150,광주광역시지역 어린이들의 현장중심 교통안전 교육의 요람,062-972-0054,광주광역시어린이교통공원,2022.1.1,6290000,광주광역시
국립광주광역시과학관,관광지,광주광역시 북구 첨단과기로 235,광주광역시 북구 오룡동 1-6,35.22990781,126.8498705,6500,화장실+주차장,,,,,,2013.10.15,500,200,"빛,소리,우주 등 과학과 예술이 만나는 과학관",062-960-6210,국립광주광역시과학관,2022.1.1,6290000,광주광역시
국립광주광역시박물관,관광지,광주광역시 북구 하서로 110,광주광역시 북구 매곡동 430,35.18965658,126.8839515,80000,화장실+주차장+관광안내소,,,,,,1978.12.6,500,200,"광주광역시전남지역의 전통문화를 조사연구,전시교육,보존관리하기 위해 설립한 박물관",062-570-7000,국립광주광역시박물관,2022.1.1,6290000,광주광역시
김대중 컨벤션센터,관광지,광주광역시 서구 상무누리로 30,광주광역시 서구 치평동 1159-2,35.14677706,126.8404805,12027,화장실+주차장+관광안내소,,,,,,2005.9.6,5000,1000,"총 29개의 회의실, 3,000석 규모의 다목적홀을 갖춘 국제규모의 최첨단 전시컨벤션센터",062-611-2000,김대중컨벤션센터,2022.1.1,6290000,광주광역시
역사문화공원,관광지,광주광역시 광산구 왕버들로 331,광주광역시 광산구 신창동 1173-2,35.19467258,126.8452966,51806.4,주차장+화장실+관광안내소,,,,,,2001.4.3,100,50,사적 제375호로 지정된 반촌재와 청동기 시대 대표 묘제로 여러매의 판석과 합석을 이용해 축조된 광주광역시 신창동 지석묘를 볼 수 있는 곳이다.,062-960-8711,광주광역시 광산구청,2022.1.1,6290000,광주광역시
푸른길공원,관광지,,광주광역시 남구 주월동 434-2,35.12748017,126.8964923,120227.6,주차장+화장실+관광안내소,,,,,,2002.5.7,100,50,"전라도와 경상도를 연결하는 경전선 광주광역시구간이 폐선된 이우, 폐철도 부지에 조성된 도시공원이다.",062-674-5877,푸른길운동본부,2022.1.1,6290000,광주광역시
보라매축구공원,관광지,,광주광역시 광산구 신촌동 83-5,35.13932032,126.8229701,58000,화장실+주차장+관광안내소,,종합체육시설,,,,2015.3.1,2000,100,발에 착착 감기는 좋은 잔디와 함께하는 축구를 경험할 수 있음,062-960-8114,광주광역시 광산구청,2022.1.1,6290000,광주광역시
운남동근린공원,관광지,광주광역시 광산구 목련로 156,,35.17144137,126.8159402,21190,화장실+주차장,,,,,,2003.5.31,1200,40,광산구 운남동과 월곡동 사이 풍영정천을 두고 경계에 위치한 공원,062-960-8114,광주광역시 광산구청,2022.1.1,6290000,광주광역시
경암근린공원,관광지,광주광역시 광산구 하남대로54번안길 133,광주광역시 광산구 하남동 663,35.17828124,126.8000842,64835,주차장+화장실,,,,,,2004.3.29,100,50,공원 내 유아 숲 체험원이 있어 아이와 함께 방문하여 숲길을 걸으며 놀기 좋은 곳이다.,062-960-8711,광주광역시 광산구청,2022.1.1,6290000,광주광역시
무양서원,관광지,광주광역시 광산구 산월로21번길 26,,35.21001305,126.8400956,210,화장실+주차장,,,,,,1987.2.9,250,20,"무양서원은 고려 인종 때 어의이면서 명신인 장경공 최사전을 중심으로 그의 후손 4명(손암 최윤덕, 금남 최부, 문절공 유희춘, 충열공 나덕헌)을 모시고 있는 서원",062-960-8252,광산구청 문화체육과,2022.1.1,6290000,광주광역시
용아생가,관광지,광주광역시 광산구 소촌로46번길 24,광주광역시 광산구 소촌동 363-1,35.149486,126.7951682,160,화장실+주차장,,,,,,1986.2.7,100,10,"현대 문학의 개척자, 용아 박용철 생가, 정렬적이고 남성적인 그의 시세계는 30년대 서정시 발전에 선구적 역할을 하였다",062-960-8251,광주광역시 광산구청,2022.1.1,6290000,광주광역시
1913송정역시장,관광지,광주광역시 광산구 송정로8번길 13,광주광역시 광산구 송정동 990-18,35.13642721,126.7919415,10000,화장실+주차장,,,,,,2017.11.22,2000,50,1913년부터 광주광역시 송정역과 함께 명맥을 같이한 100년 역사를 간직한 유서 깊은 전통 시장,062-941-6605,1913송정역시장 상인회,2022.1.1,6290000,광주광역시
경장각,관광지,광주광역시 광산구 용아로 460,광주광역시 광산구 흑석동 206,35.184433,126.805391,60,화장실+주차장,,,,,,2005.6.20,100,10,경장각은 조선 인조 때의 문신이었던 이신의(李信儀)을 배양하는 곳,062-940-8225,광주광역시 광산구청,2022.1.1,6290000,광주광역시
양림역사문화마을,관광지,,광주광역시 남구 양림동 314,35.13870389,126.9160141,6800,주차장+화장실+관광안내소,,,,,,2017.1.1,1000,100,"도심에 있으면서도 숲이 우거져 풍경이 아름다운 양림동은 광주광역시 5대 부자들이 살았던 곳이기도 하여 전통문화와 서양문화가 결합돼 한옥과 서양식 건물, 선교문화 유적지, 400년 된 노거수 호랑가시나무 등 우리의 전통 문화재가 많이 보존되어 있는 근대역사마을이다.",062-607-2432,광주광역시 남구청,2022.1.1,6290000,광주광역시
부용정,관광지,광주광역시 남구 고싸움로 2,,35.06974381,126.8375167,78,화장실+주차장,,,,,,2012.3.2,100,10,고려말 조선초에 활동한 김문발이 지은 정자로 평야가 펼쳐져 있는 평지에 2단으로 대지를 고른 후 건립됨,062-613-3463,광주광역시 남구청,2022.1.1,6290000,광주광역시
고싸움놀이테마공원,관광지,광주광역시 남구 고싸움로 2,,35.06974381,126.8375167,17000,화장실+주차장,,,,,,2012.3.2,1000,200,한국의 대표적인 민속놀이인 고싸움을 체험할 수 있는 테마파크,062-374-3839,광주광역시 남구청,2022.1.1,6290000,광주광역시
광주광역시김치타운,관광지,광주광역시 남구 김치로 60,,35.10966818,126.8666534,1600,화장실+주차장,,,,,,2010.10.23,300,50,"광주광역시김치타운은 우리나라 대표 음식인 김치의 역사와 문화를 배우고 직접 김치를 만드는 체험을 할 수 있도록 광주광역시 남구에 조성되었다. 김치타운 내에는 직접 보고, 즐기고, 느낄 수 있는 김치박물관과 첨단시설의 김치 HACCP가공공장이 있으며, 여러 종류의 김치를 직접 담가서 맛볼 수 있는 김치 체험장이 있다.",062-613-8223,광주광역시김치타운,2022.1.1,6290000,광주광역시
사직공원전망타워,관광지,광주광역시 남구 사직길 49 (사동),,35.14189575,126.9118559,388,주차장+화장실+관광안내소,,,,,,2015.3.28,200,50,광주광역시의 중심에서 동서남북을 모두 조망할 수 있는 곳으로 광주광역시의 야경 명소로 유명한 곳이다.,062-613-6467,푸른도시사업소,2022.1.1,6290000,광주광역시
자연관광 광주광역시사직공원,관광지,광주광역시 남구 사직길 49 (사동),,35.14189575,126.9118559,65000,화장실+주차장,,,,,,2015.3.28,150,15,조선 3년에 토지의 신과 곡식의 신에게 제사를 지냈던 사직단을 설치한 것으로 유래된 사직단이 있던 공원,062-675-3280,광주광역시 남구청,2022.1.1,6290000,광주광역시
물빛근린공원,관광지,광주광역시 남구 효우로 107,,35.10379015,126.9038526,44177,화장실,,,,,,2003.11.12,0,0,주변 자연경관과 어울리는 시가 있는 문학길로 문학과 함께 산책하는 힐림 쉼터가 조성되어 있다.,062-607-3814,광주광역시 남구청,2022.1.1,6290000,광주광역시
영산강문화관,관광지,광주광역시 남구 승촌보길 90,,35.06581966,126.761073,3689,화장실+주차장+관광안내소,,,,,,2015.5.12,300,100,"영산강의 물길을 따라 형성된 남도의 역사와 문화, 생태, 삶의 공간을 느낄 수 있음",061-335-0866,영산강문화관,2022.1.1,6290000,광주광역시
용봉초록습지,관광지,,광주광역시 북구 용봉동 1027,35.18332703,126.8898185,203000,화장실+주차장,,,,,,2012.6.15,500,50,가족과 함께하기 좋은 산책로,062-971-6467,광주광역시 북구청,2022.1.1,6290000,광주광역시
송산근린공원,관광지,,광주광역시 광산구 박호동 576,35.16418346,126.7372941,597960,화장실,,,,,,2006.7.12,0,0,송정리 영광통에서 영광방면으로 약 5km남짓을 가다보면 황룡강을 가로지르는 다리가 보인다. 다리를 건너기 직전에 우회전을 하여 박호동 가는 길로 들어서서 200여 미터를 더 가면 커다란 강 한 가운데 떠있는 섬 공원을 볼 수 있다. 이 섬은 전체가 공원이다.,062-960-8711,광주광역시 광산구청,2022.1.1,6290000,광주광역시
광주광역시공원,관광지,광주광역시 남구 중앙로107번길 15,,35.14707323,126.9100957,4680,화장실+주차장,,,,,,1994.4.1,100,50,"광주광역시시의 제1호 공원으로 시민들이 즐겨찾는 휴식공간, 현충각과 광주광역시시립 박물관, 시민관 등이 자리하고 있음",062-613-6463,광주광역시 푸른도시사업소,2022.1.1,6290000,광주광역시
펭귄마을,관광지,광주광역시 남구 천변좌로 446번길 7,광주광역시 남구 양림동 201-64,35.1400765,126.917036,12000,주차장+화장실+관광안내소,,,,,,2016.1.1,0,0,"광주광역시천변에 위치한 마을로, 개화기 선교사들의 활동중심지. 펭귄 텃밭은 사람들이 불법으로 쓰레기를 버렷던 곳을 펭긴처럼 뒤뚱거리며 걷는 아저씨가 텃밭처럼 꾸몄다 해서 붙여진 이름이다. 모기도 많고 냄새도 심한 이곳에 오래된 액자와 옛 사진들, 고장 난 시계들이 걸리고 투박하게 쓴 문구들까지 어우러지며 묘한 분위기를 자아낸다.",062-607-4502,양림동 주민자치회,2022.1.1,6290000,광주광역시
빛고을농촌테마공원,관광지,광주광역시 남구 포충로 966-15,광주광역시 남구 양과동 1290,35.08429468,126.8679857,49809,화장실+주차장,,,,,,2019.10.7,1000,50,아이들과 함께 놀기 좋은 곳,062-607-3851,광주광역시 남구청,2022.1.1,6290000,광주광역시
동명동동리단길,관광지,,광주광역시 동구 동명동 143-30,35.14835833,126.926339,397876,주차장,,,,,,2017.1.1,0,0,"전남여고에서부터 조선대학교 방향을 이어지는 길과 주변 골목길을 통칭하며, 서울의 경리단길과 거리 모습이 비슷하다 하여 젊은이들 사이에서 동리단길로 불린다.",062-223-0066,동명동 주민자치회,2022.1.1,6290000,광주광역시
양산제(양산호수공원),관광지,광주광역시 북구 하서로 311,광주광역시 북구 양산동 288-3,35.20276943,126.8736492,54893,화장실,,,,,,1967.2.20,0,0,"각종 생활쓰레기, 악취 등으로 몸살을 앓던 양산제가 지난 2010년 말 생태와 문화가 한데 어우러진 친환경 호수공간으로 변모해 주민들이 즐겨 찾는 도심 속 힐링공간으로 각광받고 있다.",062-510-1225,광주광역시 북구청,2022.1.1,6290000,광주광역시
증심사,관광지,광주광역시 동구 증심사길 177,,35.12884453,126.9700905,29516,주차장+화장실+관광안내소,,,,,,1984.2.17,0,448,광주광역시지역의 대표적인 불교도량으로 무등산 서쪽 기슭에 자리 잡고 있다.,062-226-0107,증심사,2022.1.1,6290000,광주광역시
어린이문화원,관광지,,광주광역시 동구 남동 4-8,35.146915,126.920194,6200,화장실+주차장+관광안내소+매표소,,,,,,2015.11.25,1000,0,"어린이문화원은 국립아시아문화전당에서 가장 밝은 곳으로, 국내 최대 어린이 문화시설입니다. 국립아시아문화전당의 어린이문화원에서는 다양한 아시아 문화를 기반으로 한 체험과 교육, 공연이 열립니다. 이곳에서 아이들은 무한한 상상력을 펼치며 세상과의 공감 능력을 배우게 됩니다. 또한 어린이문화원 옥상은 어린이놀이터와 공원이 형성되어 있어서 가족들이 함께 어울릴 수 있는 장소를 제공합니다.",1899-5566,국립아시아문화전당,2022.1.1,6290000,광주광역시
포충사,관광지,광주광역시 남구 포충로 767 (원산동),,35.08945325,126.8484326,119000,주차장+화장실,,,,,,1974.5.22,0,0,"1606년 선조가 친히 고경명에게 포충이란 액호를 내리고 뜻을 기리게 하면서 만들어졌다. 포충사는 제봉 고경명 장군을 비롯해 그의 아들 종후, 인후, 유팽로, 안영 등이 함계 모셔신 사액사우이다.",062-613-3461,포충사관리사무소,2022.1.1,6290000,광주광역시
하정웅미술관,관광지,광주광역시 서구 상무대로 1165,,35.15498216,126.8884415,1830,화장실+주차장,,,,,,2017.3.3,0,0,"하정웅선생의 숭고한 정신을 기리고, 그가 기능한 미술품을 활용하기 위한 미술관",062-613-5390,광주광역시시립미술관,2022.1.1,6290000,광주광역시
광주광역시시립미술관,관광지,광주광역시 북구 하서로 52,,35.18323305,126.8857358,13329,화장실+주차장,,,,,,1992.8.2,0,0,1992년 개관부터 한국 현대미술의 역사와 자취를 함께하며 문화공간으로 자리잡음,062-613-7100,광주광역시시립미술관,2022.1.1,6290000,광주광역시
수완호수공원,관광지,광주광역시 광산구 장신로82번길 57,,35.18794733,126.8202489,49613,화장실,,,,,,2001.4.19,0,0,풍영정천 한복판의 문화예술이 공존하는 매력적인 호수공원,062-672-0660,광주광역시 광산구청,2022.1.1,6290000,광주광역시
국립아시아문화전당,관광지,광주광역시 동구 문화전당로 38,,35.14691559,126.9199945,9500,화장실+주차장+관광안내소+매표소,,,,,,2015.11.25,9300,1000,"예로부터 예향의 고장인 광주광역시가 아시아의 과거-현재의 문화예술과 혁신적이고 미래지향적인 콘텐츠가 끊임없이 생성, 교류하는 아시아 문화전당을 통해 아시아의 문화중심 도시로 발돋움 하고 있는 현장이다. 아시아 문화전당은 민주평화교류원, 어린이문화원, 문화창조원, 문화정보원, 예술극장 등 명실상부한 문화예술 거점시설로서의 시설을 갖추고 있으며, 그 내부에 창제작센터, 라이브러리파크 등 혁신적인 공간을 다수 보유하고 있다.",1899-5566,국립아시아문화전당,2022.1.1,6290000,광주광역시
전통문화관,관광지,광주광역시 동구 의재로 222,광주광역시 동구 운림동 323,35.1334851,126.9514045,852.18,주차장+화장실+관광안내소,,,,,,2012.2.1,300,24,"남도의 자랑스러운 전통문화를 전수, 보존하는 법고창신의 공간이자 함께 만들고 배우는 창작공방이다.",062-232-1502,광주광역시문화재단,2022.1.1,6290000,광주광역시
광주광역시지산유원지,관광지,광주광역시 동구 지호로164번길 14-10,,35.14875974,126.9468348,112000,화장실+주차장,,,,,,1975.1.1,1000,62,"무등산의 자연을 편안하게 즐기고 체험, 리프트 모노레일 있음",062-221-2760,광주광역시 동구청,2022.1.1,6290000,광주광역시
광주광역시백범기념관,관광지,광주광역시 동구 천변우로 599,광주광역시 동구 학동 1013,35.13113791,126.926364,301.38,주차장+화장실+관광안내소,,,,,,2015.10.25,200,30,김구 선생의 독립운동 업적만을 알리고 기리는 것이 아닌 나라를 찾기 위해 희생한 선열들의 뜻과 삶을 알리고 이를 계승하고자 설립된 기념관.,062-233-2477,백범문화재단,2022.1.1,6290000,광주광역시
광주광역시학생독립기념관,관광지,광주광역시 서구 학생독립로 30,,35.14058722,126.865043,2556,화장실+주차장,,,,,,2005.11.30,100,50,"학생독립운동 정신 선양을 위해 나라사랑 역사체험학습, 전시안내 자원봉사자 양성, 광주광역시학생독립운동 동지회 지원 등을 비롯한 다채로운 프로그램을 전개",062-221-5532,광주광역시학생독립운동기념회관,2022.1.1,6290000,광주광역시
조선대학교 장미원,관광지,광주광역시 동구 필문대로 309,,35.14600564,126.9343635,8299,화장실+주차장,,,,,,2001.5.1,1000,1000,아름답게 핀 장미를 보며 산책할 수 있음,062-230-7114,조선대학교,2022.1.1,6290000,광주광역시
산동교친수공원,관광지,,광주광역시 북구 동림동 130-15,35.18969955,126.8619726,7350,화장실+주차장,,,,,,2011.11.10,2000,50,"넓은 유채꽃밭이 있으며, 도심 속 작은 휴양지를 느낄 수 있음",062-410-6793,광주광역시 북구청,2022.1.1,6290000,광주광역시
푸른길공원,관광지,,광주광역시 남구 주월동 355-5,35.13325855,126.898694,98300,화장실+주차장,,,,,,2002.5.7,100,20,경정선 광주광역시 구간이 폐선된 이후 폐철도 부지에 조성된 도시공원,062-675-3280,광주광역시 남구청,2022.1.1,6290000,광주광역시
원효사,관광지,,광주광역시 북구 금곡동 산 209-13,35.14874455,126.983272,8595,주차장+화장실+관광안내소,,,,,,1980.1.1,200,210,원효대사가 창건한 고찰. 호남지방에서 통일신라시대 작품으로는 가장 아름답고 완전하게 보존된 것으로 후불탱화를 부처님 크기에 맞춰 목각탱화로 조성해 벽면에 부착시켜 놓았다.,062-266-0326,원효사,2022.1.1,6290000,광주광역시
문화근린공원,관광지,광주광역시 북구 대천로 86,,35.1849167,126.9166857,87287,화장실+주차장,,,,,,1990.12.31,100,20,북구에 위치한 산책하기 좋은 공원,062-410-8000,광주광역시 북구청,2022.1.1,6290000,광주광역시
영산강거징이쉼터,관광지,,광주광역시 북구 신용동 368,35.2128207,126.855218,47000,화장실+주차장,,,,,,2011.10.23,1000,0,"첨단2지구 영산강 수변공원, 피크닉 즐길 수 있음",062-410-8000,광주광역시 북구청,2022.1.1,6290000,광주광역시
광주광역시천천변공원,관광지,,광주광역시 북구 임동 618,35.1665834,126.8857554,25101,화장실+주차장,,종합체육시설,,,,2013.8.1,3000,1000,분수쇼나와 아름다운 조명이 펼쳐져 가족과의 나들이나 연인들의 데이트 코스로 일품인 곳임,062-410-8000,광주광역시 북구청,2022.1.1,6290000,광주광역시
국립5.18민주묘지,관광지,광주광역시 북구 민주로 200,,35.23576619,126.9392544,166734,주차장+화장실+관광안내소,,,,,,2002.7.27,30000,1000,"국립5 · 18민주묘지는 5 · 18민주화운동의 정신과 역사적 의미를 확인하는 상징적인 공간이자, 의로운 희생의 가치와 자유와 정의를 갈망하는 오늘을 살아가는 삶이 만나는 공간입니다.",062-268-0158,국립5.18민주묘지관리소,2022.1.1,6290000,광주광역시
5.18추모관,관광지,광주광역시 북구 민주로 200,광주광역시 북구 운정동 582-4,35.23576619,126.9392544,898,화장실+주차장,,,,,,2007.5.14,1000,100,"살아있는 역사 교육의 장으로 우리 민족과 세계인의 가슴속에 영원한 민주성지이므로, 뜻 깊은 관광지임",062-266-3599,국립5.18묘지관리소,2022.1.1,6290000,광주광역시
광주광역시문화예술회관,관광지,광주광역시 북구 북문대로 60,광주광역시 북구 운암동 328-16,35.178205,126.881993,53000,화장실+주차장+매표소,,,,,,1991.10.21,1000,200,"광주광역시문화예술회관은 장르별로 특성화하여 건축된 전문공연예술회관이다. 오페라 및 다양한 장르를 공연할 수 있는 대극장, 가변형 객석의 실험무대가 가능한 소극장 등 2개의 공연장으로 구성되어 있으며, 실험극장 및 일반 미술전시를 겸비한 별관전시실, 운암산의 울창한 숲으로 둘러싸인 원형야외극장, 그밖에 시립예술단체의 연습장, 대극장 로비에 설치된 매점 및 레스토랑 등의 편의시설이 갖추어진 문예회관이다.",062-613-8364,광주광역시문화예술회관,2022.1.1,6290000,광주광역시
광주광역시기아챔피언스필드,관광지,광주광역시 북구 서림로 10,광주광역시 북구 임동 316,35.16942496,126.8888055,57646,주차장+화장실,,,,,,2014.2.28,27000,1115,국내 최초 개방형 야구장으로 기아 타이거즈 홈구장으로 사용하고 있음.,070-7686-8000,KIA타이거즈,2022.1.1,6290000,광주광역시
광주광역시민속박물관,관광지,광주광역시 북구 서하로 48-25,,35.18441617,126.8884364,3800,화장실+주차장,,,,,,1987.11.1,500,20,조선시대부터 근현대에 이르기까지 광주광역시의 근현대 역사를 들여다 볼 수 있는 새로운 창이자 지역의 대표 박물관,062-613-5337,광주광역시시립미술관,2022.1.1,6290000,광주광역시
전남대학교박물관,관광지,광주광역시 북구 용봉로 77,,35.17388133,126.911182,1511,화장실+주차장,,,,,,1957.4.15,100,1000,역사를 되돌아보는 기회,062-530-5114,광주광역시 전남대학교,2022.1.1,6290000,광주광역시
우치공원 동물원,관광지,광주광역시 북구 우치로 677,광주광역시 북구 생용동 658,35.22431388,126.8942421,800,화장실+주차장+매표소,,,,,,1992.5.4,3000,1172,"사육사들이 직접 적은 사육사노트를 두어 해당 동물에 대한 정보와 상태를 알 수 있고,사육사 체험과 먹이주기 체험 등 등 유아부터 학생들까지 여러 가지 체험을 즐길 수 있음",062-607-8000,우치공원,2022.1.1,6290000,광주광역시
녹색에너지체험관 광주광역시전남지역본부,관광지,광주광역시 북구 첨단과기로 123,광주광역시 북구 오룡동 1,35.22687915,126.8429479,750,화장실+주차장,,,,,,2012.6.1,100,100,"에너지절약이 왜 필요한지, 생활 속에서 실천할 수 있는 에너지절약은 무엇인지를 쉽게 이해하고 배울 수 있는 체험관",062-602-0001,녹색에너지체험관,2022.1.1,6290000,광주광역시
광주광역시시민의숲,관광지,광주광역시 북구 추암로 190,,35.23301946,126.8663369,675366,화장실+주차장,,종합체육시설,오토캠핑장,,,2019.4.9,1000,40,산책하기 좋은 공원,062-971-6467,광주광역시 북구청,2022.1.1,6290000,광주광역시
광주광역시호호수생태원,관광지,광주광역시 북구 충효샘길 7,,35.18421895,127.0011214,140938,화장실+주차장+관광안내소,,,,,,2006.3.20,2000,50,자연생태학습장이자 시민들의 휴식공간,062-613-7891,광주광역시호호수생태원,2022.1.1,6290000,광주광역시
무등산풍암정,관광지,광주광역시 북구 풍암제길 117,광주광역시 북구 금곡동 718,35.16047529,126.9932106,52,화장실+관광안내소,,,,,,1990.11.15,200,0,무등산을 느낄 수 있음,062-227-1187,무등산 국립공원 사무소,2022.1.1,6290000,광주광역시
중외공원 산책로,관광지,광주광역시 북구 하서로 50,,35.18145609,126.8842789,81100,화장실+주차장,,,,,,1981.8.20,300,50,드넓은 잔디밭과 함께 다양한 꽃과 수목으로 봄꽃놀이와 가을철 단풍명소로 유명,062-613-7124,광주광역시시립미술관,2022.1.1,6290000,광주광역시
광주광역시어린이대공원,관광지,광주광역시 북구 하서로 50,,35.18145609,126.8842789,34691,화장실+주차장,,,,,,1981.8.20,300,50,놀이동산 시설이 있는 가족 나들이 장소,062-613-5337,광주광역시 북구청,2022.1.1,6290000,광주광역시
5.18자유공원,관광지,,광주광역시 서구 치평동 1161-6,35.14939198,126.83965,33058,주차장+화장실+관광안내소,,,,,,1993.3.30,500,63,"상무신도심 개발에 따라 인근에 1만평규모로 조성된 5 ·18자유공원은 80년대당시 항쟁에 참여한 시민을 연행, 구금·재판하고 수감하였던 군사법정과 영창을 원형으로 복원·재현한 곳임",062-376-5183,5.18기념문화센터,2022.1.1,6290000,광주광역시
전평제근린공원,관광지,,광주광역시 서구 매월동 519-1,35.11557813,126.8484198,44000,화장실+운동시설,,,,,,2013.5.1,1000,100,"1943년 매월동, 벽진동 농경에 농업용수를 공급하고 재해방질을 위해 축조된 곳으로 도심근교에 방치된 저수지를 1999년부터 2002년까지 국토공원화 시범사업으로 체육시설 및 쉼터를 조성하여 수변경관 및 자연탐방과 함께 가족단위 여가선용의 장소로 적합한 곳이다.",062-360-7512,광주광역시 서구청,2022.1.1,6290000,광주광역시
풍암생활체육공원,관광지,,광주광역시 서구 풍암동 30,35.1308135,126.8834659,80511,주차장+화장실+운동시설,,,,,,2006.3.29,1000,50,풍암생활체육공원은 1991. 6. 30 ~ 1994. 12 . 31일까지 3년 6개월동안 서구 관내에서 배출된 일반 생활쓰레기와 연탄재를 매립했던 곳으로 심한 악취로 황폐해진 공간을 정비하여 자연이 살아숨쉬는 자연적인 생태공간으로 조성한 공원이다.,062-360-7512,광주광역시 서구청,2022.1.1,6290000,광주광역시
운천저수지,관광지,,광주광역시 서구 쌍촌동 869-9,35.14717497,126.8562207,74020,화장실,,,,,,1967.2.20,300,0,"1951년 마륵동 농경지에 농업용수를 공급하고 재해방지를 위해 축조된 운천저수지는 주변의 대규모 택지개발(금호,상무지구)로 도시중심에 위치하게 되고, 상류수원 고갈과 오폐수가 유입되어 악취와 해충서식지로 전락하게되어 각종 민원이 유발되던 곳을 95년 차별 사업추진으로 하수와 오폐수 유입을 차단하고 맑은물을 공급한 결과 자정능력이 회복되어 각종 조류가 날아드는 자연생태공원으로 변모하여 현재는 도심 속 명소가 되었다.",062-360-7990,광주광역시 서구청,2022.1.1,6290000,광주광역시
월봉서원,관광지,광주광역시 광산구 광곡길 133,광주광역시 광산구 광산동 452,35.235863,126.7451862,1229,화장실+주차장+관광안내소,,,,,,1979.8.3,100,20,"조선전기 기대승을 추모하기 위해 창건한 서원, 광주광역시기념물 제9호로 지정",062-960-8255,광주광역시 광산구청,2022.1.1,6290000,광주광역시
용진정사,관광지,,광주광역시 광산구 왕동 3-4,35.19745908,126.7243872,310,화장실,,,,,,1985.2.25,100,20,일본이 한국을 병탄하자 망국의 한을 달래면서 용진산에 강당을 짓고 후진 양성에 힘쓴 곳으로서 한말 호남 의병활동의 본거지,062-960-8114,광주광역시 광산구청,2022.1.1,6290000,광주광역시
황룡친수공원,관광지,,광주광역시 광산구 선암동 241-31,35.14394537,126.774342,375000,화장실+주차장,,,,,,1998.9.15,500,50,선운지구에 위치한 유채꽃을 볼 수 있는 공원,062-960-8114,광주광역시 광산구청,2022.1.1,6290000,광주광역시
양산호수공원,관광지,광주광역시 북구 하서로 311,광주광역시 북구 양산동 288-3,35.20276943,126.8736492,60000,화장실,,,,,,2001.9.14,500,50,초여름에 연분홍빛 연꽃을 즐길 수 있는 공원,062-510-1225,광주광역시 북구청,2022.1.1,6290000,광주광역시
쌍암공원,관광지,광주광역시 광산구 첨단중앙로182번길 39,광주광역시 광산구 쌍암동 653-1,35.22222807,126.8442514,142000,화장실+주차장,,,,,,1991.12.12,200,50,철쭉꽃 숲들과 소나무숲이 있어 상쾌함과 시원함을 더해주는 공원,062-960-8114,광주광역시 광산구청,2022.1.1,6290000,광주광역시
대인예술시장,관광지,광주광역시 동구 독립로 284-2,광주광역시 동구 대인동 329,35.15612043,126.9128901,4300,화장실+주차장,,,,,,1976.3.22,500,200,다양한 볼거리와 먹거리를 즐길 수 있는 전통 시장,062-223-3001,광주광역시대인시장,2022.1.1,6290000,광주광역시
상무시민공원,관광지,,광주광역시 서구 치평동 1162,35.15422831,126.8420517,117590,화장실+주차장,,종합체육시설,,,,1997.10.13,3000,50,"볼거리가 많고, 온 가족이 운동과 산책을 즐기며 휴식의 기회를 가질 수 있는 공간임",062-360-7513,광주광역시 서구청,2022.1.1,6290000,광주광역시
광주광역시월드컵경기장,관광지,광주광역시 서구 금화로 240,,35.13364608,126.874879,870.7,주차장+화장실,,,,,,2001.9.30,43000,1000,"광주광역시월드컵경기장은 4만 3천여명을 동시에 수용할 수 있는 축구전용경기장으로 미디어센터, 선수대기실, 통신 및 의료시설과 최고의 서비스를 가능케 하는 각종 부대시설 등 관람객과 선수를 동시에 만족시키는 최첨단시설을 갖추고 있다.",062-604-2002,월드컵경기장관리사무소,2022.1.1,6290000,광주광역시
평화공원,관광지,광주광역시 서구 내방로 102,,35.15654724,126.8516022,15000,화장실+주차장,,,,,,2010.3.15,100,300,숲과 물과 빛이 어우러지는 광장,062-365-4114,광주광역시 서구청,2022.1.1,6290000,광주광역시
5.18기념공원,관광지,광주광역시 서구 내방로 152,,35.15830536,126.8575559,204985,화장실+주차장,,,,,,1998.4.30,5000,100,"5.18민주화운동을 기리는 공원으로 추모공간, 광장, 기념탑, 문화회관 등 있음",062-376-5197,광주광역시시립미술관,2022.1.1,6290000,광주광역시
무각사,관광지,광주광역시 서구 운천로 230,,35.15378107,126.8560181,510,화장실+주차장,,,,,,2007.7.27,100,30,"일주문, 사천왕문, 대웅전, 종각 등 전통사찰의 형태를 여법하게 갖추며 일주문에서 사천왕, 대웅전으로 이어지는 가람 형태는 도심 한복판에 자리해 있으면서도 깊은 산사에 들어선 듯 경건함",062-383-0108,광주광역시 서구청,2022.1.1,6290000,광주광역시
창작농성골,관광지,광주광역시 서구 월산로173번길 15-1,,35.15297291,126.8929141,600,주차장,,,,,,2018.11.29,100,20,"골목마다 벽화를 비롯해 쉼터와 벚나무, 동백나무 등의 묘목이 식재을 띤 명소",062-365-4114,광주광역시 서구청,2022.1.1,6290000,광주광역시
유적근린공원,관광지,광주광역시 서구 천변우하로 469,,35.16879873,126.8714435,5587,화장실,,,,,,2017.7.1,500,0,기원후 5세기 후반의 백제 역사를 간직하고 있음,062-360-7114,광주광역시 서구청,2022.1.1,6290000,광주광역시
청춘발산마을,관광지,광주광역시 서구 천변좌로108번길 17-13,,35.15917994,126.8919941,154,화장실,,,,,,2015.3.2,500,0,알록달록한 동네 한 바퀴를 돌아보며 즐기는 문화,062-464-0020,발산마을,2022.1.1,6290000,광주광역시
화담사,관광지,광주광역시 서구 화운로156번길 17-8,광주광역시 서구 화정동 781-23,35.15352999,126.8784258,110,화장실+주차장,,,,,,1993.3.20,100,35,"옛부터 꽃이 많다고(군분)하여 화담이라 불렸으며, 계단으로 내려가는 중간에 동재와 서재를 두고 그 밑에 외인문을 배치한 전형적인 서원 건축양식을 갖추고 있음",062-368-3330,화담사보존회,2022.1.1,6290000,광주광역시
